19:29:25  $GNRMC,192925.00,A,3741.56815,N,09720.28347,W,0.000,,101124,,,A,V*0D
19:29:25  $GNVTG,,T,,M,0.000,N,0.000,K,A*3D
19:29:25  $GNGGA,192925.00,3741.56815,N,09720.28347,W,1,12,99.99,335.8,M,-26.4,M,,*4F
19:29:25  $GNGSA,A,3,03,04,09,16,26,28,31,,,,,,99.99,99.99,99.99,1*34
19:29:25  $GNGSA,A,3,78,66,77,76,65,67,,,,,,,99.99,99.99,99.99,2*3E
19:29:25  $GNGSA,A,3,25,02,03,07,08,30,,,,,,,99.99,99.99,99.99,3*39
19:29:25  $GNGSA,A,3,21,22,26,36,,,,,,,,,99.99,99.99,99.99,4*36
19:29:25  $GPGSV,3,1,11,03,52,227,45,04,57,321,47,07,10,262,44,09,27,310,38,1*64
19:29:25  $GPGSV,3,2,11,16,69,133,43,26,53,058,46,27,11,146,29,28,12,069,27,1*68
19:29:25  $GPGSV,3,3,11,31,39,056,49,44,42,210,41,46,35,225,35,1*55
19:29:25  $GPGSV,2,1,07,03,52,227,36,04,57,321,40,07,10,262,31,09,27,310,32,6*6E
19:29:25  $GPGSV,2,2,07,26,53,058,41,28,12,069,22,31,39,056,39,6*59
19:29:25  $GPGSV,1,1,02,06,01,306,,29,02,034,,0*6B
19:29:25  $GLGSV,2,1,07,65,24,143,41,66,76,118,49,67,44,329,52,75,01,038,20,1*7A
19:29:25  $GLGSV,2,2,07,76,57,025,50,77,68,247,46,78,10,224,33,1*49
19:29:25  $GLGSV,2,1,05,65,24,143,34,66,76,118,42,67,44,329,44,76,57,025,45,3*7B
19:29:25  $GLGSV,2,2,05,78,10,224,32,3*44
19:29:25  $GAGSV,2,1,06,02,64,079,49,03,29,113,31,07,40,312,46,08,76,061,48,2*7A
19:29:25  $GAGSV,2,2,06,25,18,041,29,30,47,189,49,2*7D
19:29:25  $GAGSV,2,1,06,02,64,079,45,03,29,113,27,07,40,312,42,08,76,061,45,7*7D
19:29:25  $GAGSV,2,2,06,25,18,041,27,30,47,189,43,7*7C
19:29:25  $GAGSV,1,1,04,13,02,237,,26,06,284,,27,01,209,,33,00,328,,0*7C
19:29:25  $GBGSV,2,1,05,21,78,212,45,22,30,151,41,24,04,235,18,26,53,244,47,1*73
19:29:25  $GBGSV,2,2,05,36,16,051,31,1*47
19:29:25  $GBGSV,1,1,01,14,,,41,3*75
19:29:25  $GNGLL,3741.56815,N,09720.28347,W,192925.00,A,A*69
19:29:26  $GNRMC,192926.00,A,3741.56815,N,09720.28347,W,0.000,,101124,,,A,V*0E
19:29:26  $GNVTG,,T,,M,0.000,N,0.000,K,A*3D
19:29:26  $GNGGA,192926.00,3741.56815,N,09720.28347,W,1,12,99.99,335.8,M,-26.4,M,,*4C
19:29:26  $GNGSA,A,3,03,04,09,16,26,28,31,,,,,,99.99,99.99,99.99,1*34
19:29:26  $GNGSA,A,3,78,66,77,76,65,67,,,,,,,99.99,99.99,99.99,2*3E
19:29:26  $GNGSA,A,3,25,02,03,07,08,30,,,,,,,99.99,99.99,99.99,3*39
19:29:26  $GNGSA,A,3,21,22,26,36,,,,,,,,,99.99,99.99,99.99,4*36
19:29:26  $GPGSV,3,1,11,03,52,227,45,04,57,321,47,07,10,262,44,09,27,310,38,1*64
19:29:26  $GPGSV,3,2,11,16,69,133,43,26,53,058,46,27,11,146,29,28,12,069,26,1*69
19:29:26  $GPGSV,3,3,11,31,39,056,49,44,42,210,41,46,35,225,35,1*55
19:29:26  $GPGSV,2,1,07,03,52,227,36,04,57,321,40,07,10,262,31,09,27,310,32,6*6E
19:29:26  $GPGSV,2,2,07,26,53,058,41,28,12,069,21,31,39,056,39,6*5A
19:29:26  $GPGSV,1,1,02,06,01,306,,29,02,034,,0*6B
19:29:26  $GLGSV,2,1,07,65,24,143,41,66,76,118,49,67,44,329,52,75,01,038,19,1*70
19:29:26  $GLGSV,2,2,07,76,57,025,50,77,68,247,46,78,10,224,34,1*4E
19:29:26  $GLGSV,2,1,05,65,24,143,34,66,76,118,42,67,44,329,44,76,57,025,45,3*7B
19:29:26  $GLGSV,2,2,05,78,10,224,32,3*44
19:29:26  $GAGSV,2,1,06,02,64,079,49,03,29,113,31,07,40,312,46,08,76,061,48,2*7A
19:29:26  $GAGSV,2,2,06,25,18,041,29,30,47,189,49,2*7D
19:29:26  $GAGSV,2,1,06,02,64,079,45,03,29,113,27,07,40,312,42,08,76,061,45,7*7D
19:29:26  $GAGSV,2,2,06,25,18,041,27,30,47,189,43,7*7C
19:29:26  $GAGSV,1,1,04,13,02,237,,26,06,284,,27,01,209,,33,00,328,,0*7C
19:29:26  $GBGSV,2,1,05,21,78,212,45,22,30,151,41,24,04,235,19,26,53,244,47,1*72
19:29:26  $GBGSV,2,2,05,36,16,051,31,1*47
19:29:26  $GBGSV,1,1,01,14,,,41,3*75
19:29:26  $GNGLL,3741.56815,N,09720.28347,W,192926.00,A,A*6A
19:29:27  $GNRMC,192927.00,A,3741.56815,N,09720.28347,W,0.000,,101124,,,A,V*0F
19:29:27  $GNVTG,,T,,M,0.000,N,0.000,K,A*3D
19:29:27  $GNGGA,192927.00,3741.56815,N,09720.28347,W,1,12,99.99,335.8,M,-26.4,M,,*4D
19:29:27  $GNGSA,A,3,03,04,09,16,26,28,31,,,,,,99.99,99.99,99.99,1*34
19:29:27  $GNGSA,A,3,78,66,77,76,65,67,,,,,,,99.99,99.99,99.99,2*3E
19:29:27  $GNGSA,A,3,25,02,03,07,08,30,,,,,,,99.99,99.99,99.99,3*39
19:29:27  $GNGSA,A,3,21,22,26,36,,,,,,,,,99.99,99.99,99.99,4*36
19:29:27  $GPGSV,3,1,11,03,52,227,45,04,57,321,47,07,10,262,44,09,27,310,39,1*65
19:29:27  $GPGSV,3,2,11,16,69,133,43,26,53,058,46,27,11,146,30,28,12,069,26,1*61
19:29:27  $GPGSV,3,3,11,31,39,056,49,44,42,210,42,46,35,225,35,1*56
19:29:27  $GPGSV,2,1,07,03,52,227,36,04,57,321,40,07,10,262,31,09,27,310,32,6*6E
19:29:27  $GPGSV,2,2,07,26,53,058,41,28,12,069,19,31,39,056,39,6*51
19:29:27  $GPGSV,1,1,02,06,01,306,,29,02,034,,0*6B
19:29:27  $GLGSV,2,1,07,65,24,143,42,66,76,118,49,67,44,329,52,75,01,038,19,1*73
19:29:27  $GLGSV,2,2,07,76,57,025,50,77,68,247,46,78,10,224,34,1*4E
19:29:27  $GLGSV,2,1,05,65,24,143,34,66,76,118,42,67,44,329,44,76,57,025,45,3*7B
19:29:27  $GLGSV,2,2,05,78,10,224,32,3*44
19:29:27  $GAGSV,2,1,06,02,64,079,48,03,29,113,30,07,40,312,45,08,76,061,48,2*79
19:29:27  $GAGSV,2,2,06,25,18,041,29,30,47,189,49,2*7D
19:29:27  $GAGSV,2,1,06,02,64,079,45,03,29,113,27,07,40,312,42,08,76,061,45,7*7D
19:29:27  $GAGSV,2,2,06,25,18,041,27,30,47,189,43,7*7C
19:29:27  $GAGSV,1,1,04,13,02,237,,26,06,284,,27,01,209,,33,00,328,,0*7C
19:29:27  $GBGSV,2,1,05,21,78,212,45,22,30,151,41,24,04,235,18,26,53,244,47,1*73
19:29:27  $GBGSV,2,2,05,36,16,051,30,1*46
19:29:27  $GBGSV,1,1,01,14,,,41,3*75
19:29:27  $GNGLL,3741.56815,N,09720.28347,W,192927.00,A,A*6B
19:29:28  $GNRMC,192928.00,A,3741.56815,N,09720.28347,W,0.000,,101124,,,A,V*00
19:29:28  $GNVTG,,T,,M,0.000,N,0.000,K,A*3D
19:29:28  $GNGGA,192928.00,3741.56815,N,09720.28347,W,1,12,99.99,335.8,M,-26.4,M,,*42
19:29:28  $GNGSA,A,3,03,04,09,16,26,28,31,,,,,,99.99,99.99,99.99,1*34
19:29:28  $GNGSA,A,3,78,66,77,76,65,67,,,,,,,99.99,99.99,99.99,2*3E
19:29:28  $GNGSA,A,3,25,02,03,07,08,30,,,,,,,99.99,99.99,99.99,3*39
19:29:28  $GNGSA,A,3,21,22,26,36,,,,,,,,,99.99,99.99,99.99,4*36
19:29:28  $GPGSV,3,1,11,03,52,227,45,04,57,321,47,07,10,262,44,09,27,310,39,1*65
19:29:28  $GPGSV,3,2,11,16,69,133,43,26,53,058,46,27,11,146,30,28,12,069,25,1*62
19:29:28  $GPGSV,3,3,11,31,39,056,49,44,42,210,42,46,35,225,35,1*56
19:29:28  $GPGSV,2,1,07,03,52,227,36,04,57,321,40,07,10,262,31,09,27,310,32,6*6E
19:29:28  $GPGSV,2,2,07,26,53,058,41,28,12,069,17,31,39,056,38,6*5E
19:29:28  $GPGSV,1,1,02,06,01,306,,29,02,034,,0*6B
19:29:28  $GLGSV,2,1,07,65,24,143,42,66,76,118,49,67,44,329,52,75,01,038,19,1*73
19:29:28  $GLGSV,2,2,07,76,57,025,49,77,68,247,46,78,10,224,34,1*46
19:29:28  $GLGSV,2,1,05,65,24,143,34,66,76,118,42,67,44,329,44,76,57,025,45,3*7B
19:29:28  $GLGSV,2,2,05,78,10,224,32,3*44
19:29:28  $GAGSV,2,1,06,02,64,079,48,03,29,113,31,07,40,312,45,08,76,061,48,2*78
19:29:28  $GAGSV,2,2,06,25,18,041,29,30,47,189,49,2*7D
19:29:28  $GAGSV,2,1,06,02,64,079,45,03,29,113,27,07,40,312,42,08,76,061,45,7*7D
19:29:28  $GAGSV,2,2,06,25,18,041,27,30,47,189,43,7*7C
19:29:28  $GAGSV,1,1,04,13,02,237,,26,06,284,,27,01,209,,33,00,328,,0*7C
19:29:28  $GBGSV,2,1,05,21,78,212,45,22,30,151,40,24,04,235,18,26,53,244,46,1*73
19:29:28  $GBGSV,2,2,05,36,16,051,30,1*46
19:29:28  $GBGSV,1,1,01,14,,,41,3*75
19:29:28  $GNGLL,3741.56815,N,09720.28347,W,192928.00,A,A*64
19:29:29  $GNRMC,192929.00,A,3741.56815,N,09720.28347,W,0.000,,101124,,,A,V*01
19:29:29  $GNVTG,,T,,M,0.000,N,0.000,K,A*3D
19:29:29  $GNGGA,192929.00,3741.56815,N,09720.28347,W,1,12,99.99,335.8,M,-26.4,M,,*43
19:29:29  $GNGSA,A,3,03,04,09,16,26,28,31,,,,,,99.99,99.99,99.99,1*34
19:29:29  $GNGSA,A,3,78,66,77,76,65,67,,,,,,,99.99,99.99,99.99,2*3E
19:29:29  $GNGSA,A,3,25,02,03,07,08,30,,,,,,,99.99,99.99,99.99,3*39
19:29:29  $GNGSA,A,3,21,22,26,36,,,,,,,,,99.99,99.99,99.99,4*36
19:29:29  $GPGSV,3,1,11,03,52,227,45,04,57,321,47,07,10,262,44,09,27,310,39,1*65
19:29:29  $GPGSV,3,2,11,16,69,133,43,26,53,058,45,27,11,146,29,28,12,069,26,1*6A
19:29:29  $GPGSV,3,3,11,31,39,056,49,44,42,210,42,46,35,225,34,1*57
19:29:29  $GPGSV,2,1,07,03,52,227,36,04,57,321,40,07,10,262,31,09,27,310,32,6*6E
19:29:29  $GPGSV,2,2,07,26,53,058,41,28,12,069,16,31,39,056,38,6*5F
19:29:29  $GPGSV,1,1,02,06,01,306,,29,02,034,,0*6B
19:29:29  $GLGSV,2,1,07,65,24,143,42,66,76,118,49,67,44,329,52,75,01,038,20,1*79
19:29:29  $GLGSV,2,2,07,76,57,025,50,77,68,247,46,78,10,224,35,1*4F
19:29:29  $GLGSV,2,1,05,65,24,143,34,66,76,118,42,67,44,329,44,76,57,025,45,3*7B
19:29:29  $GLGSV,2,2,05,78,10,224,31,3*47
19:29:29  $GAGSV,2,1,06,02,64,079,48,03,29,113,30,07,40,312,45,08,76,061,47,2*76
19:29:29  $GAGSV,2,2,06,25,18,041,29,30,47,189,48,2*7C
19:29:29  $GAGSV,2,1,06,02,64,079,45,03,29,113,28,07,40,312,42,08,76,061,45,7*72
19:29:29  $GAGSV,2,2,06,25,18,041,27,30,47,189,43,7*7C
19:29:29  $GAGSV,1,1,04,13,02,237,,26,06,284,,27,01,209,,33,00,328,,0*7C
19:29:29  $GBGSV,2,1,05,21,78,212,45,22,30,151,40,24,04,235,18,26,53,244,46,1*73
19:29:29  $GBGSV,2,2,05,36,16,051,29,1*4E
19:29:29  $GBGSV,1,1,01,14,,,40,3*74
19:29:29  $GNGLL,3741.56815,N,09720.28347,W,192929.00,A,A*65
19:29:30  $GNRMC,192930.00,A,3741.56815,N,09720.28347,W,0.000,,101124,,,A,V*09
19:29:30  $GNVTG,,T,,M,0.000,N,0.000,K,A*3D
19:29:30  $GNGGA,192930.00,3741.56815,N,09720.28347,W,1,12,99.99,335.8,M,-26.4,M,,*4B
19:29:30  $GNGSA,A,3,03,04,09,16,26,28,31,,,,,,99.99,99.99,99.99,1*34
19:29:30  $GNGSA,A,3,78,66,77,76,65,67,,,,,,,99.99,99.99,99.99,2*3E
19:29:30  $GNGSA,A,3,25,02,03,07,08,30,,,,,,,99.99,99.99,99.99,3*39
19:29:30  $GNGSA,A,3,21,22,26,36,,,,,,,,,99.99,99.99,99.99,4*36
19:29:30  $GPGSV,3,1,11,03,52,227,45,04,57,321,47,07,10,262,44,09,27,310,39,1*65
19:29:30  $GPGSV,3,2,11,16,69,133,43,26,53,058,45,27,11,146,29,28,12,069,27,1*6B
19:29:30  $GPGSV,3,3,11,31,39,056,49,44,42,210,42,46,35,225,34,1*57
19:29:30  $GPGSV,2,1,07,03,52,227,35,04,57,321,40,07,10,262,32,09,27,310,32,6*6E
19:29:30  $GPGSV,2,2,07,26,53,058,40,28,12,069,14,31,39,056,38,6*5C
19:29:30  $GPGSV,1,1,02,06,01,306,,29,02,034,,0*6B
19:29:30  $GLGSV,2,1,07,65,24,143,42,66,76,118,49,67,44,329,51,75,01,038,20,1*7A
19:29:30  $GLGSV,2,2,07,76,57,025,50,77,68,247,46,78,10,224,36,1*4C
19:29:30  $GLGSV,2,1,05,65,24,143,34,66,76,118,42,67,44,329,44,76,57,025,45,3*7B
19:29:30  $GLGSV,2,2,05,78,10,224,31,3*47
19:29:30  $GAGSV,2,1,06,02,64,079,48,03,29,113,30,07,40,312,45,08,76,061,47,2*76
19:29:30  $GAGSV,2,2,06,25,18,041,29,30,47,189,48,2*7C
19:29:30  $GAGSV,2,1,06,02,64,079,45,03,29,113,28,07,40,312,42,08,76,061,45,7*72
19:29:30  $GAGSV,2,2,06,25,18,041,27,30,47,189,43,7*7C
19:29:30  $GAGSV,1,1,04,13,02,237,,26,06,284,,27,01,209,,33,00,328,,0*7C
19:29:30  $GBGSV,2,1,05,21,78,212,46,22,30,151,40,24,04,235,20,26,53,244,46,1*7B
19:29:30  $GBGSV,2,2,05,36,16,051,28,1*4F
19:29:30  $GBGSV,1,1,01,14,,,40,3*74
19:29:30  $GNGLL,3741.56815,N,09720.28347,W,192930.00,A,A*6D
19:29:31  $GNRMC,192931.00,A,3741.56815,N,09720.28347,W,0.000,,101124,,,A,V*08
19:29:31  $GNVTG,,T,,M,0.000,N,0.000,K,A*3D
19:29:31  $GNGGA,192931.00,3741.56815,N,09720.28347,W,1,12,99.99,335.8,M,-26.4,M,,*4A
19:29:31  $GNGSA,A,3,03,04,09,16,26,27,28,31,,,,,99.99,99.99,99.99,1*31
19:29:31  $GNGSA,A,3,78,66,77,76,65,67,,,,,,,99.99,99.99,99.99,2*3E
19:29:31  $GNGSA,A,3,25,02,03,07,08,30,,,,,,,99.99,99.99,99.99,3*39
19:29:31  $GNGSA,A,3,21,22,26,36,,,,,,,,,99.99,99.99,99.99,4*36
19:29:31  $GPGSV,3,1,11,03,52,227,45,04,57,321,47,07,10,262,45,09,27,310,39,1*64
19:29:31  $GPGSV,3,2,11,16,69,133,43,26,53,058,45,27,11,146,29,28,12,069,33,1*6E
19:29:31  $GPGSV,3,3,11,31,39,056,50,44,42,210,43,46,35,225,37,1*5D
19:29:31  $GPGSV,2,1,07,03,52,227,35,04,57,321,39,07,10,262,33,09,27,310,32,6*61
19:29:31  $GPGSV,2,2,07,26,53,058,41,28,12,069,13,31,39,056,38,6*5A
19:29:31  $GPGSV,1,1,02,06,01,306,,29,02,034,,0*6B
19:29:31  $GLGSV,2,1,07,65,24,143,42,66,76,118,48,67,44,329,52,75,01,038,21,1*79
19:29:31  $GLGSV,2,2,07,76,57,025,50,77,68,247,45,78,10,224,36,1*4F
19:29:31  $GLGSV,2,1,05,65,24,143,34,66,76,118,42,67,44,329,44,76,57,025,45,3*7B
19:29:31  $GLGSV,2,2,05,78,10,224,30,3*46
19:29:31  $GAGSV,2,1,06,02,64,079,47,03,29,113,31,07,40,312,45,08,76,061,48,2*77
19:29:31  $GAGSV,2,2,06,25,18,041,29,30,47,189,48,2*7C
19:29:31  $GAGSV,2,1,06,02,64,079,45,03,29,113,27,07,40,312,42,08,76,061,45,7*7D
19:29:31  $GAGSV,2,2,06,25,18,041,27,30,47,189,41,7*7E
19:29:31  $GAGSV,1,1,04,13,02,237,,26,06,284,,27,01,209,,33,00,328,,0*7C
19:29:31  $GBGSV,2,1,05,21,78,212,47,22,30,151,40,24,04,235,22,26,53,244,47,1*79
19:29:31  $GBGSV,2,2,05,36,16,051,28,1*4F
19:29:31  $GBGSV,1,1,01,14,,,39,3*7A
19:29:31  $GNGLL,3741.56815,N,09720.28347,W,192931.00,A,A*6C
19:29:32  $GNRMC,192932.00,A,3741.56815,N,09720.28347,W,0.000,,101124,,,A,V*0B
19:29:32  $GNVTG,,T,,M,0.000,N,0.000,K,A*3D
19:29:32  $GNGGA,192932.00,3741.56815,N,09720.28347,W,1,12,99.99,335.8,M,-26.4,M,,*49
19:29:32  $GNGSA,A,3,03,04,09,16,26,27,28,31,,,,,99.99,99.99,99.99,1*31
19:29:32  $GNGSA,A,3,78,66,77,76,65,67,,,,,,,99.99,99.99,99.99,2*3E
19:29:32  $GNGSA,A,3,25,02,03,07,08,30,,,,,,,99.99,99.99,99.99,3*39
19:29:32  $GNGSA,A,3,21,22,26,36,,,,,,,,,99.99,99.99,99.99,4*36
19:29:32  $GPGSV,3,1,11,03,52,227,45,04,57,321,47,07,10,262,45,09,27,310,39,1*64
19:29:32  $GPGSV,3,2,11,16,69,133,42,26,53,058,45,27,11,146,28,28,12,069,33,1*6E
19:29:32  $GPGSV,3,3,11,31,39,056,49,44,42,210,44,46,35,225,37,1*52
19:29:32  $GPGSV,2,1,08,03,52,227,36,04,57,321,39,07,10,262,33,09,27,310,32,6*6D
19:29:32  $GPGSV,2,2,08,26,53,058,40,27,11,146,25,28,12,069,17,31,39,056,38,6*61
19:29:32  $GPGSV,1,1,02,06,01,306,,29,02,034,,0*6B
19:29:32  $GLGSV,2,1,07,65,24,143,42,66,76,118,48,67,44,329,51,75,01,038,21,1*7A
19:29:32  $GLGSV,2,2,07,76,57,025,50,77,68,247,45,78,10,224,36,1*4F
19:29:32  $GLGSV,2,1,05,65,24,143,34,66,76,118,42,67,44,329,43,76,57,025,44,3*7D
19:29:32  $GLGSV,2,2,05,78,10,224,29,3*4E
19:29:32  $GAGSV,2,1,06,02,64,078,48,03,29,113,31,07,40,312,46,08,76,061,48,2*7A
19:29:32  $GAGSV,2,2,06,25,18,041,29,30,47,189,49,2*7D
19:29:32  $GAGSV,2,1,06,02,64,078,45,03,29,113,27,07,40,312,42,08,76,061,45,7*7C
19:29:32  $GAGSV,2,2,06,25,18,041,27,30,47,189,42,7*7D
19:29:32  $GAGSV,1,1,04,13,02,237,,26,06,284,,27,01,209,,33,00,328,,0*7C
19:29:32  $GBGSV,2,1,05,21,78,212,46,22,30,151,40,24,04,235,23,26,53,244,47,1*79
19:29:32  $GBGSV,2,2,05,36,16,051,28,1*4F
19:29:32  $GBGSV,1,1,01,14,,,39,3*7A
19:29:32  $GNGLL,3741.56815,N,09720.28347,W,192932.00,A,A*6F
19:29:33  $GNRMC,192933.00,A,3741.56815,N,09720.28347,W,0.000,,101124,,,A,V*0A
19:29:33  $GNVTG,,T,,M,0.000,N,0.000,K,A*3D
19:29:33  $GNGGA,192933.00,3741.56815,N,09720.28347,W,1,12,99.99,335.8,M,-26.4,M,,*48
19:29:33  $GNGSA,A,3,03,04,09,16,26,27,28,31,,,,,99.99,99.99,99.99,1*31
19:29:33  $GNGSA,A,3,78,66,77,76,65,67,,,,,,,99.99,99.99,99.99,2*3E
19:29:33  $GNGSA,A,3,25,02,03,07,08,30,,,,,,,99.99,99.99,99.99,3*39
19:29:33  $GNGSA,A,3,21,22,26,36,,,,,,,,,99.99,99.99,99.99,4*36
19:29:33  $GPGSV,3,1,11,03,52,227,45,04,57,321,47,07,10,262,44,09,27,310,39,1*65
19:29:33  $GPGSV,3,2,11,16,69,133,42,26,53,058,45,27,11,146,28,28,12,069,33,1*6E
19:29:33  $GPGSV,3,3,11,31,39,056,49,44,42,210,43,46,35,225,37,1*55
19:29:33  $GPGSV,2,1,08,03,52,227,36,04,57,321,39,07,10,262,32,09,27,310,32,6*6C
19:29:33  $GPGSV,2,2,08,26,53,058,40,27,11,146,26,28,12,069,21,31,39,056,38,6*67
19:29:33  $GPGSV,1,1,02,06,01,306,,29,02,034,,0*6B
19:29:33  $GLGSV,2,1,07,65,24,143,43,66,76,118,48,67,44,329,51,75,01,038,21,1*7B
19:29:33  $GLGSV,2,2,07,76,57,025,50,77,68,247,45,78,10,224,35,1*4C
19:29:33  $GLGSV,2,1,05,65,24,143,34,66,76,118,42,67,44,329,43,76,57,025,44,3*7D
19:29:33  $GLGSV,2,2,05,78,10,224,29,3*4E
19:29:33  $GAGSV,2,1,06,02,64,078,48,03,29,113,31,07,40,312,45,08,76,061,48,2*79
19:29:33  $GAGSV,2,2,06,25,18,041,29,30,47,189,48,2*7C
19:29:33  $GAGSV,2,1,06,02,64,078,45,03,29,113,26,07,40,312,42,08,76,061,45,7*7D
19:29:33  $GAGSV,2,2,06,25,18,041,27,30,47,189,43,7*7C
19:29:33  $GAGSV,1,1,04,13,02,237,,26,06,284,,27,01,209,,33,00,328,,0*7C
19:29:33  $GBGSV,2,1,05,21,78,212,46,22,30,151,40,24,04,235,23,26,53,244,48,1*76
19:29:33  $GBGSV,2,2,05,36,16,051,28,1*4F
19:29:33  $GBGSV,1,1,01,14,,,39,3*7A
19:29:33  $GNGLL,3741.56815,N,09720.28347,W,192933.00,A,A*6E
19:29:34  $GNRMC,192934.00,A,3741.56815,N,09720.28347,W,0.000,,101124,,,A,V*0D
19:29:34  $GNVTG,,T,,M,0.000,N,0.000,K,A*3D
19:29:34  $GNGGA,192934.00,3741.56815,N,09720.28347,W,1,12,99.99,335.8,M,-26.4,M,,*4F
19:29:34  $GNGSA,A,3,03,04,09,16,26,27,28,31,,,,,99.99,99.99,99.99,1*31
19:29:34  $GNGSA,A,3,78,66,77,76,65,67,,,,,,,99.99,99.99,99.99,2*3E
19:29:34  $GNGSA,A,3,25,02,03,07,08,30,,,,,,,99.99,99.99,99.99,3*39
19:29:34  $GNGSA,A,3,21,22,26,36,,,,,,,,,99.99,99.99,99.99,4*36
19:29:34  $GPGSV,3,1,11,03,52,227,45,04,57,321,47,07,10,262,44,09,27,310,39,1*65
19:29:34  $GPGSV,3,2,11,16,69,133,42,26,53,058,45,27,11,146,28,28,12,069,33,1*6E
19:29:34  $GPGSV,3,3,11,31,39,056,49,44,42,210,43,46,35,225,36,1*54
19:29:34  $GPGSV,2,1,08,03,52,227,36,04,57,321,39,07,10,262,32,09,27,310,32,6*6C
19:29:34  $GPGSV,2,2,08,26,53,058,40,27,11,146,26,28,12,069,23,31,39,056,38,6*65
19:29:34  $GPGSV,1,1,02,06,01,306,,29,02,034,,0*6B
19:29:34  $GLGSV,2,1,07,65,24,143,43,66,76,118,48,67,44,329,52,75,01,038,21,1*78
19:29:34  $GLGSV,2,2,07,76,57,025,50,77,68,247,45,78,10,224,35,1*4C
19:29:34  $GLGSV,2,1,05,65,24,143,35,66,76,118,42,67,44,329,43,76,57,025,44,3*7C
19:29:34  $GLGSV,2,2,05,78,10,224,29,3*4E
19:29:34  $GAGSV,2,1,06,02,64,078,48,03,29,113,31,07,40,312,45,08,76,061,48,2*79
19:29:34  $GAGSV,2,2,06,25,18,041,28,30,47,189,48,2*7D
19:29:34  $GAGSV,2,1,06,02,64,078,45,03,29,113,27,07,40,312,42,08,76,061,45,7*7C
19:29:34  $GAGSV,2,2,06,25,18,041,27,30,47,189,43,7*7C
19:29:34  $GAGSV,1,1,04,13,02,237,,26,06,284,,27,01,209,,33,00,328,,0*7C
19:29:34  $GBGSV,2,1,05,21,78,212,46,22,30,151,41,24,04,235,23,26,53,244,48,1*77
19:29:34  $GBGSV,2,2,05,36,16,051,28,1*4F
19:29:34  $GBGSV,1,1,01,14,,,39,3*7A
19:29:34  $GNGLL,3741.56815,N,09720.28347,W,192934.00,A,A*69
19:29:35  $GNRMC,192935.00,A,3741.56815,N,09720.28347,W,0.000,,101124,,,A,V*0C
19:29:35  $GNVTG,,T,,M,0.000,N,0.000,K,A*3D
19:29:35  $GNGGA,192935.00,3741.56815,N,09720.28347,W,1,12,99.99,335.8,M,-26.4,M,,*4E
19:29:35  $GNGSA,A,3,03,04,09,16,26,27,28,31,,,,,99.99,99.99,99.99,1*31
19:29:35  $GNGSA,A,3,78,66,77,76,65,67,,,,,,,99.99,99.99,99.99,2*3E
19:29:35  $GNGSA,A,3,25,02,03,07,08,30,,,,,,,99.99,99.99,99.99,3*39
19:29:35  $GNGSA,A,3,21,22,26,36,,,,,,,,,99.99,99.99,99.99,4*36
19:29:35  $GPGSV,3,1,11,03,52,227,45,04,57,321,47,07,10,262,45,09,27,310,39,1*64
19:29:35  $GPGSV,3,2,11,16,69,133,43,26,53,058,45,27,11,146,29,28,12,069,33,1*6E
19:29:35  $GPGSV,3,3,11,31,39,056,49,44,42,210,44,46,35,225,36,1*53
19:29:35  $GPGSV,2,1,08,03,52,227,36,04,57,321,40,07,10,262,33,09,27,310,32,6*63
19:29:35  $GPGSV,2,2,08,26,53,058,40,27,11,146,26,28,12,069,24,31,39,056,39,6*63
19:29:35  $GPGSV,1,1,02,06,01,306,,29,02,034,,0*6B
19:29:35  $GLGSV,2,1,07,65,24,143,42,66,76,118,49,67,44,329,51,75,01,038,22,1*78
19:29:35  $GLGSV,2,2,07,76,57,025,50,77,68,247,45,78,10,224,35,1*4C
19:29:35  $GLGSV,2,1,05,65,24,143,34,66,76,118,42,67,44,329,43,76,57,025,44,3*7D
19:29:35  $GLGSV,2,2,05,78,10,224,28,3*4F
19:29:35  $GAGSV,2,1,06,02,64,078,48,03,29,113,31,07,40,312,45,08,76,061,48,2*79
19:29:35  $GAGSV,2,2,06,25,18,041,28,30,47,189,48,2*7D
19:29:35  $GAGSV,2,1,06,02,64,078,45,03,29,113,26,07,40,312,42,08,76,061,45,7*7D
19:29:35  $GAGSV,2,2,06,25,18,041,28,30,47,189,43,7*73
19:29:35  $GAGSV,1,1,04,13,02,237,,26,06,284,,27,01,209,,33,00,328,,0*7C
19:29:35  $GBGSV,2,1,05,21,78,212,46,22,30,151,41,24,04,235,24,26,53,244,48,1*70
19:29:35  $GBGSV,2,2,05,36,16,051,27,1*40
19:29:35  $GBGSV,1,1,01,14,,,39,3*7A
19:29:35  $GNGLL,3741.56815,N,09720.28347,W,192935.00,A,A*68
19:29:36  $GNRMC,192936.00,A,3741.56815,N,09720.28347,W,0.000,,101124,,,A,V*0F
19:29:36  $GNVTG,,T,,M,0.000,N,0.000,K,A*3D
19:29:36  $GNGGA,192936.00,3741.56815,N,09720.28347,W,1,12,99.99,335.8,M,-26.4,M,,*4D
19:29:36  $GNGSA,A,3,03,04,09,16,26,27,28,31,,,,,99.99,99.99,99.99,1*31
19:29:36  $GNGSA,A,3,78,66,77,76,65,67,,,,,,,99.99,99.99,99.99,2*3E
19:29:36  $GNGSA,A,3,25,02,03,07,08,30,,,,,,,99.99,99.99,99.99,3*39
19:29:36  $GNGSA,A,3,21,22,26,36,,,,,,,,,99.99,99.99,99.99,4*36
19:29:36  $GPGSV,3,1,11,03,52,227,45,04,57,321,47,07,10,262,45,09,27,310,39,1*64
19:29:36  $GPGSV,3,2,11,16,69,133,43,26,53,058,45,27,11,146,30,28,12,069,33,1*66
19:29:36  $GPGSV,3,3,11,31,39,056,49,44,42,210,43,46,35,225,36,1*54
19:29:36  $GPGSV,2,1,08,03,52,227,36,04,57,321,40,07,10,262,32,09,27,310,32,6*62
19:29:36  $GPGSV,2,2,08,26,53,058,40,27,11,146,26,28,12,069,24,31,39,056,39,6*63
19:29:36  $GPGSV,1,1,02,06,01,306,,29,02,034,,0*6B
19:29:36  $GLGSV,2,1,07,65,24,143,42,66,76,118,48,67,44,329,51,75,01,038,22,1*79
19:29:36  $GLGSV,2,2,07,76,57,025,49,77,68,247,45,78,10,224,35,1*44
19:29:36  $GLGSV,2,1,05,65,24,143,34,66,76,118,42,67,44,329,43,76,57,025,44,3*7D
19:29:36  $GLGSV,2,2,05,78,10,224,28,3*4F
19:29:36  $GAGSV,2,1,06,02,64,078,48,03,29,113,31,07,40,312,45,08,76,061,48,2*79
19:29:36  $GAGSV,2,2,06,25,18,041,28,30,47,189,48,2*7D
19:29:36  $GAGSV,2,1,06,02,64,078,45,03,29,113,27,07,40,312,42,08,76,061,45,7*7C
19:29:36  $GAGSV,2,2,06,25,18,041,28,30,47,189,43,7*73
19:29:36  $GAGSV,1,1,04,13,02,237,,26,06,284,,27,01,209,,33,00,328,,0*7C
19:29:36  $GBGSV,2,1,05,21,78,212,45,22,30,151,41,24,04,235,24,26,53,244,47,1*7C
19:29:36  $GBGSV,2,2,05,36,16,051,27,1*40
19:29:36  $GBGSV,1,1,01,14,,,39,3*7A
19:29:36  $GNGLL,3741.56815,N,09720.28347,W,192936.00,A,A*6B
19:29:37  $GNRMC,192937.00,A,3741.56815,N,09720.28347,W,0.000,,101124,,,A,V*0E
19:29:37  $GNVTG,,T,,M,0.000,N,0.000,K,A*3D
19:29:37  $GNGGA,192937.00,3741.56815,N,09720.28347,W,1,12,99.99,335.8,M,-26.4,M,,*4C
19:29:37  $GNGSA,A,3,03,04,09,16,26,27,28,31,,,,,99.99,99.99,99.99,1*31
19:29:37  $GNGSA,A,3,78,66,77,76,65,67,,,,,,,99.99,99.99,99.99,2*3E
19:29:37  $GNGSA,A,3,25,02,03,07,08,30,,,,,,,99.99,99.99,99.99,3*39
19:29:37  $GNGSA,A,3,21,22,26,36,,,,,,,,,99.99,99.99,99.99,4*36
19:29:37  $GPGSV,3,1,11,03,52,227,45,04,57,321,47,07,10,262,45,09,27,310,39,1*64
19:29:37  $GPGSV,3,2,11,16,69,133,43,26,53,058,45,27,11,146,29,28,12,069,33,1*6E
19:29:37  $GPGSV,3,3,11,31,39,056,49,44,42,210,44,46,35,225,37,1*52
19:29:37  $GPGSV,2,1,08,03,52,227,36,04,57,321,40,07,10,262,32,09,27,310,32,6*62
19:29:37  $GPGSV,2,2,08,26,53,058,40,27,11,146,27,28,12,069,24,31,39,056,39,6*62
19:29:37  $GPGSV,1,1,02,06,01,306,,29,02,034,,0*6B
19:29:37  $GLGSV,2,1,07,65,24,143,42,66,76,118,49,67,44,329,51,75,01,038,21,1*7B
19:29:37  $GLGSV,2,2,07,76,57,025,49,77,68,247,45,78,10,224,35,1*44
19:29:37  $GLGSV,2,1,05,65,24,143,35,66,76,118,42,67,44,329,43,76,57,025,44,3*7C
19:29:37  $GLGSV,2,2,05,78,10,224,28,3*4F
19:29:37  $GAGSV,2,1,06,02,64,078,48,03,29,113,31,07,40,312,46,08,76,061,48,2*7A
19:29:37  $GAGSV,2,2,06,25,18,041,29,30,47,189,48,2*7C
19:29:37  $GAGSV,2,1,06,02,64,078,45,03,29,113,26,07,40,312,42,08,76,061,45,7*7D
19:29:37  $GAGSV,2,2,06,25,18,041,28,30,47,189,43,7*73
19:29:37  $GAGSV,1,1,04,13,02,237,,26,06,284,,27,01,209,,33,00,328,,0*7C
19:29:37  $GBGSV,2,1,05,21,78,212,45,22,30,151,41,24,04,235,25,26,53,244,47,1*7D
19:29:37  $GBGSV,2,2,05,36,16,051,27,1*40
19:29:37  $GBGSV,1,1,01,14,,,40,3*74
19:29:37  $GNGLL,3741.56815,N,09720.28347,W,192937.00,A,A*6A
19:29:38  $GNRMC,192938.00,A,3741.56815,N,09720.28347,W,0.000,,101124,,,A,V*01
19:29:38  $GNVTG,,T,,M,0.000,N,0.000,K,A*3D
19:29:38  $GNGGA,192938.00,3741.56815,N,09720.28347,W,1,12,99.99,335.8,M,-26.4,M,,*43
19:29:38  $GNGSA,A,3,03,04,09,16,26,27,28,31,,,,,99.99,99.99,99.99,1*31
19:29:38  $GNGSA,A,3,78,66,77,76,65,67,,,,,,,99.99,99.99,99.99,2*3E
19:29:38  $GNGSA,A,3,25,02,03,07,08,30,,,,,,,99.99,99.99,99.99,3*39
19:29:38  $GNGSA,A,3,21,22,26,36,,,,,,,,,99.99,99.99,99.99,4*36
19:29:38  $GPGSV,3,1,11,03,52,227,45,04,57,321,47,07,10,262,45,09,27,310,39,1*64
19:29:38  $GPGSV,3,2,11,16,69,133,43,26,53,058,44,27,11,146,29,28,12,069,33,1*6F
19:29:38  $GPGSV,3,3,11,31,39,056,49,44,42,210,43,46,35,225,37,1*55
19:29:38  $GPGSV,3,1,09,03,52,227,36,04,57,321,40,07,10,262,32,09,27,310,32,6*62
19:29:38  $GPGSV,3,2,09,26,53,058,40,27,11,146,27,28,12,069,24,29,02,034,18,6*64
19:29:38  $GPGSV,3,3,09,31,39,056,39,6*5B
19:29:38  $GPGSV,1,1,01,06,01,306,,0*56
19:29:38  $GLGSV,2,1,07,65,24,143,42,66,76,118,49,67,44,329,51,75,01,038,20,1*7A
19:29:38  $GLGSV,2,2,07,76,57,025,50,77,68,247,45,78,10,224,35,1*4C
19:29:38  $GLGSV,2,1,05,65,24,143,35,66,76,118,42,67,44,329,43,76,57,025,44,3*7C
19:29:38  $GLGSV,2,2,05,78,10,224,29,3*4E
19:29:38  $GAGSV,2,1,06,02,64,078,48,03,29,113,31,07,40,312,45,08,76,062,48,2*7A
19:29:38  $GAGSV,2,2,06,25,18,041,29,30,47,189,48,2*7C
19:29:38  $GAGSV,2,1,06,02,64,078,45,03,29,113,26,07,40,312,43,08,76,062,45,7*7F
19:29:38  $GAGSV,2,2,06,25,18,041,28,30,47,189,43,7*73
19:29:38  $GAGSV,1,1,04,13,02,237,,26,06,284,,27,01,209,,33,00,328,,0*7C
19:29:38  $GBGSV,2,1,05,21,78,212,46,22,30,151,40,24,04,235,25,26,53,244,47,1*7F
19:29:38  $GBGSV,2,2,05,36,16,051,27,1*40
19:29:38  $GBGSV,1,1,01,14,,,39,3*7A
19:29:38  $GNGLL,3741.56815,N,09720.28347,W,192938.00,A,A*65
19:29:39  $GNRMC,192939.00,A,3741.56815,N,09720.28347,W,0.000,,101124,,,A,V*00
19:29:39  $GNVTG,,T,,M,0.000,N,0.000,K,A*3D
19:29:39  $GNGGA,192939.00,3741.56815,N,09720.28347,W,1,12,99.99,335.8,M,-26.4,M,,*42
19:29:39  $GNGSA,A,3,03,04,09,16,26,27,28,31,,,,,99.99,99.99,99.99,1*31
19:29:39  $GNGSA,A,3,78,66,77,76,65,67,,,,,,,99.99,99.99,99.99,2*3E
19:29:39  $GNGSA,A,3,25,02,03,07,08,30,,,,,,,99.99,99.99,99.99,3*39
19:29:39  $GNGSA,A,3,21,22,26,36,,,,,,,,,99.99,99.99,99.99,4*36
19:29:39  $GPGSV,3,1,11,03,52,227,44,04,57,321,47,07,10,262,45,09,27,310,39,1*65
19:29:39  $GPGSV,3,2,11,16,69,133,43,26,53,058,45,27,11,146,28,28,12,069,33,1*6F
19:29:39  $GPGSV,3,3,11,31,39,056,49,44,42,210,44,46,35,225,37,1*52
19:29:39  $GPGSV,3,1,09,03,52,227,36,04,57,321,40,07,10,262,31,09,27,310,32,6*61
19:29:39  $GPGSV,3,2,09,26,53,058,39,27,11,146,27,28,12,069,23,29,02,034,17,6*62
19:29:39  $GPGSV,3,3,09,31,39,056,39,6*5B
19:29:39  $GPGSV,1,1,01,06,01,306,,0*56
19:29:39  $GLGSV,2,1,07,65,24,143,42,66,76,118,49,67,44,329,51,75,01,038,21,1*7B
19:29:39  $GLGSV,2,2,07,76,57,025,50,77,68,247,45,78,10,224,36,1*4F
19:29:39  $GLGSV,2,1,05,65,24,143,35,66,76,118,42,67,44,329,43,76,57,025,44,3*7C
19:29:39  $GLGSV,2,2,05,78,10,224,28,3*4F
19:29:39  $GAGSV,2,1,06,02,64,078,48,03,29,113,31,07,40,312,46,08,76,062,48,2*79
19:29:39  $GAGSV,2,2,06,25,18,041,29,30,47,189,48,2*7C
19:29:39  $GAGSV,2,1,06,02,64,078,45,03,29,113,25,07,40,312,43,08,76,062,45,7*7C
19:29:39  $GAGSV,2,2,06,25,18,041,28,30,47,189,43,7*73
19:29:39  $GAGSV,1,1,04,13,02,237,,26,06,284,,27,01,209,,33,00,328,,0*7C
19:29:39  $GBGSV,2,1,05,21,78,212,46,22,30,151,41,24,04,235,24,26,53,244,47,1*7F
19:29:39  $GBGSV,2,2,05,36,16,051,27,1*40
19:29:39  $GBGSV,1,1,01,14,,,39,3*7A
19:29:39  $GNGLL,3741.56815,N,09720.28347,W,192939.00,A,A*64
19:29:40  $GNRMC,192940.00,A,3741.56815,N,09720.28347,W,0.000,,101124,,,A,V*0E
19:29:40  $GNVTG,,T,,M,0.000,N,0.000,K,A*3D
19:29:40  $GNGGA,192940.00,3741.56815,N,09720.28347,W,1,12,99.99,335.8,M,-26.4,M,,*4C
19:29:40  $GNGSA,A,3,03,04,09,16,26,27,28,31,,,,,99.99,99.99,99.99,1*31
19:29:40  $GNGSA,A,3,78,66,77,76,65,67,,,,,,,99.99,99.99,99.99,2*3E
19:29:40  $GNGSA,A,3,25,02,03,07,08,30,,,,,,,99.99,99.99,99.99,3*39
19:29:40  $GNGSA,A,3,21,22,26,36,,,,,,,,,99.99,99.99,99.99,4*36
19:29:40  $GPGSV,3,1,11,03,52,227,44,04,57,321,47,07,10,262,44,09,27,310,39,1*64
19:29:40  $GPGSV,3,2,11,16,69,133,43,26,53,058,45,27,11,146,29,28,12,069,33,1*6E
19:29:40  $GPGSV,3,3,11,31,39,056,48,44,42,210,44,46,35,225,37,1*53
19:29:40  $GPGSV,3,1,09,03,52,227,36,04,57,321,39,07,10,262,31,09,27,310,32,6*6F
19:29:40  $GPGSV,3,2,09,26,53,058,40,27,11,146,27,28,12,069,22,29,02,034,17,6*6D
19:29:40  $GPGSV,3,3,09,31,39,056,39,6*5B
19:29:40  $GPGSV,1,1,01,06,01,306,,0*56
19:29:40  $GLGSV,2,1,07,65,24,143,43,66,76,118,49,67,44,329,51,75,01,038,22,1*79
19:29:40  $GLGSV,2,2,07,76,57,025,49,77,68,247,45,78,10,224,36,1*47
19:29:40  $GLGSV,2,1,05,65,24,143,35,66,76,118,42,67,44,329,43,76,57,025,44,3*7C
19:29:40  $GLGSV,2,2,05,78,10,224,28,3*4F
19:29:40  $GAGSV,2,1,06,02,64,078,49,03,29,113,30,07,40,312,45,08,76,062,48,2*7A
19:29:40  $GAGSV,2,2,06,25,18,041,29,30,47,189,48,2*7C
19:29:40  $GAGSV,2,1,06,02,64,078,45,03,29,113,25,07,40,312,43,08,76,062,45,7*7C
19:29:40  $GAGSV,2,2,06,25,18,041,28,30,47,189,43,7*73
19:29:40  $GAGSV,1,1,04,13,02,237,,26,06,284,,27,01,209,,33,00,328,,0*7C
19:29:40  $GBGSV,2,1,05,21,78,212,46,22,30,151,41,24,04,235,24,26,53,244,47,1*7F
19:29:40  $GBGSV,2,2,05,36,16,051,27,1*40
19:29:40  $GBGSV,1,1,01,14,,,39,3*7A
19:29:40  $GNGLL,3741.56815,N,09720.28347,W,192940.00,A,A*6A
19:29:41  $GNRMC,192941.00,A,3741.56815,N,09720.28347,W,0.000,,101124,,,A,V*0F
19:29:41  $GNVTG,,T,,M,0.000,N,0.000,K,A*3D
19:29:41  $GNGGA,192941.00,3741.56815,N,09720.28347,W,1,12,99.99,335.8,M,-26.4,M,,*4D
19:29:41  $GNGSA,A,3,03,04,09,16,26,27,28,31,,,,,99.99,99.99,99.99,1*31
19:29:41  $GNGSA,A,3,78,66,77,76,65,67,,,,,,,99.99,99.99,99.99,2*3E
19:29:41  $GNGSA,A,3,25,02,03,07,08,30,,,,,,,99.99,99.99,99.99,3*39
19:29:41  $GNGSA,A,3,21,22,26,36,,,,,,,,,99.99,99.99,99.99,4*36
19:29:41  $GPGSV,3,1,11,03,52,227,44,04,57,321,47,07,10,262,44,09,27,310,39,1*64
19:29:41  $GPGSV,3,2,11,16,69,133,43,26,53,058,45,27,11,146,29,28,12,069,33,1*6E
19:29:41  $GPGSV,3,3,11,31,39,056,48,44,42,210,43,46,35,225,37,1*54
19:29:41  $GPGSV,3,1,09,03,52,227,36,04,57,321,39,07,10,262,31,09,27,310,32,6*6F
19:29:41  $GPGSV,3,2,09,26,53,058,39,27,11,146,27,28,12,069,21,29,02,034,17,6*60
19:29:41  $GPGSV,3,3,09,31,39,056,39,6*5B
19:29:41  $GPGSV,1,1,01,06,01,306,,0*56
19:29:41  $GLGSV,2,1,07,65,24,143,42,66,76,118,49,67,44,329,51,75,01,038,23,1*79
19:29:41  $GLGSV,2,2,07,76,57,025,49,77,68,247,45,78,10,224,36,1*47
19:29:41  $GLGSV,2,1,05,65,24,143,35,66,76,118,42,67,44,329,43,76,57,025,43,3*7B
19:29:41  $GLGSV,2,2,05,78,10,224,27,3*40
19:29:41  $GAGSV,2,1,06,02,64,078,49,03,29,113,30,07,40,312,45,08,76,062,48,2*7A
19:29:41  $GAGSV,2,2,06,25,18,041,29,30,47,189,48,2*7C
19:29:41  $GAGSV,2,1,06,02,64,078,45,03,29,113,25,07,40,312,43,08,76,062,45,7*7C
19:29:41  $GAGSV,2,2,06,25,18,041,28,30,47,189,43,7*73
19:29:41  $GAGSV,1,1,04,13,02,237,,26,06,284,,27,01,209,,33,00,328,,0*7C
19:29:41  $GBGSV,2,1,05,21,78,212,46,22,30,151,41,24,04,235,24,26,53,244,47,1*7F
19:29:41  $GBGSV,2,2,05,36,16,051,27,1*40
19:29:41  $GBGSV,1,1,01,14,,,39,3*7A
19:29:41  $GNGLL,3741.56815,N,09720.28347,W,192941.00,A,A*6B
19:29:42  $GNRMC,192942.00,A,3741.56815,N,09720.28347,W,0.000,,101124,,,A,V*0C
19:29:42  $GNVTG,,T,,M,0.000,N,0.000,K,A*3D
19:29:42  $GNGGA,192942.00,3741.56815,N,09720.28347,W,1,12,99.99,335.8,M,-26.4,M,,*4E
19:29:42  $GNGSA,A,3,03,04,09,16,26,27,28,31,,,,,99.99,99.99,99.99,1*31
19:29:42  $GNGSA,A,3,78,66,77,76,65,67,,,,,,,99.99,99.99,99.99,2*3E
19:29:42  $GNGSA,A,3,25,02,03,07,08,30,,,,,,,99.99,99.99,99.99,3*39
19:29:42  $GNGSA,A,3,21,22,26,36,,,,,,,,,99.99,99.99,99.99,4*36
19:29:42  $GPGSV,3,1,11,03,52,227,44,04,57,321,47,07,10,262,44,09,27,310,39,1*64
19:29:42  $GPGSV,3,2,11,16,69,133,43,26,53,058,45,27,11,146,30,28,12,069,33,1*66
19:29:42  $GPGSV,3,3,11,31,39,056,48,44,42,210,44,46,35,225,37,1*53
19:29:42  $GPGSV,3,1,09,03,52,227,35,04,57,321,39,07,10,262,31,09,27,310,32,6*6C
19:29:42  $GPGSV,3,2,09,26,53,058,39,27,11,146,27,28,12,069,21,29,02,034,18,6*6F
19:29:42  $GPGSV,3,3,09,31,39,056,39,6*5B
19:29:42  $GPGSV,1,1,01,06,01,306,,0*56
19:29:42  $GLGSV,2,1,07,65,24,143,42,66,76,118,49,67,44,329,51,75,01,038,23,1*79
19:29:42  $GLGSV,2,2,07,76,57,025,49,77,68,247,45,78,10,224,36,1*47
19:29:42  $GLGSV,2,1,05,65,24,143,35,66,76,118,42,67,44,329,43,76,57,025,43,3*7B
19:29:42  $GLGSV,2,2,05,78,10,224,26,3*41
19:29:42  $GAGSV,2,1,06,02,64,078,49,03,29,113,30,07,40,312,45,08,76,062,48,2*7A
19:29:42  $GAGSV,2,2,06,25,18,041,29,30,47,189,48,2*7C
19:29:42  $GAGSV,2,1,06,02,64,078,45,03,29,113,25,07,40,312,43,08,76,062,45,7*7C
19:29:42  $GAGSV,2,2,06,25,18,041,27,30,47,189,43,7*7C
19:29:42  $GAGSV,1,1,04,13,02,237,,26,06,284,,27,01,209,,33,00,328,,0*7C
19:29:42  $GBGSV,2,1,05,21,78,212,46,22,30,151,41,24,04,235,24,26,53,244,47,1*7F
19:29:42  $GBGSV,2,2,05,36,16,051,27,1*40
19:29:42  $GBGSV,1,1,01,14,,,39,3*7A
19:29:42  $GNGLL,3741.56815,N,09720.28347,W,192942.00,A,A*68
19:29:43  $GNRMC,192943.00,A,3741.56815,N,09720.28347,W,0.000,,101124,,,A,V*0D
19:29:43  $GNVTG,,T,,M,0.000,N,0.000,K,A*3D
19:29:43  $GNGGA,192943.00,3741.56815,N,09720.28347,W,1,12,99.99,335.8,M,-26.4,M,,*4F
19:29:43  $GNGSA,A,3,03,04,09,16,26,27,28,31,,,,,99.99,99.99,99.99,1*31
19:29:43  $GNGSA,A,3,78,66,77,76,65,67,,,,,,,99.99,99.99,99.99,2*3E
19:29:43  $GNGSA,A,3,25,02,03,07,08,30,,,,,,,99.99,99.99,99.99,3*39
19:29:43  $GNGSA,A,3,21,22,26,36,,,,,,,,,99.99,99.99,99.99,4*36
19:29:43  $GPGSV,3,1,11,03,52,227,44,04,57,321,47,07,10,262,44,09,27,310,39,1*64
19:29:43  $GPGSV,3,2,11,16,69,133,43,26,53,058,45,27,11,146,30,28,12,069,33,1*66
19:29:43  $GPGSV,3,3,11,31,39,056,48,44,42,210,43,46,35,225,37,1*54
19:29:43  $GPGSV,3,1,09,03,52,227,36,04,57,321,39,07,10,262,31,09,27,310,32,6*6F
19:29:43  $GPGSV,3,2,09,26,53,058,39,27,11,146,27,28,12,069,21,29,02,034,17,6*60
19:29:43  $GPGSV,3,3,09,31,39,056,39,6*5B
19:29:43  $GPGSV,1,1,01,06,01,306,,0*56
19:29:43  $GLGSV,2,1,07,65,24,143,42,66,76,118,49,67,44,329,51,75,01,038,24,1*7E
19:29:43  $GLGSV,2,2,07,76,57,025,49,77,68,247,45,78,10,224,36,1*47
19:29:43  $GLGSV,2,1,05,65,24,143,35,66,76,118,42,67,44,329,43,76,57,025,43,3*7B
19:29:43  $GLGSV,2,2,05,78,10,224,25,3*42
19:29:43  $GAGSV,2,1,06,02,64,078,48,03,29,113,30,07,40,312,45,08,76,062,48,2*7B
19:29:43  $GAGSV,2,2,06,25,18,041,29,30,47,189,48,2*7C
19:29:43  $GAGSV,2,1,06,02,64,078,45,03,29,113,25,07,40,312,43,08,76,062,45,7*7C
19:29:43  $GAGSV,2,2,06,25,18,041,27,30,47,189,43,7*7C
19:29:43  $GAGSV,1,1,04,13,01,236,,26,06,284,,27,01,209,,33,00,328,,0*7E
19:29:43  $GBGSV,2,1,05,21,78,212,46,22,30,151,41,24,04,235,25,26,53,244,47,1*7E
19:29:43  $GBGSV,2,2,05,36,16,051,27,1*40
19:29:43  $GBGSV,1,1,01,14,,,39,3*7A
19:29:43  $GNGLL,3741.56815,N,09720.28347,W,192943.00,A,A*69
19:29:44  $GNRMC,192944.00,A,3741.56815,N,09720.28347,W,0.000,,101124,,,A,V*0A
19:29:44  $GNVTG,,T,,M,0.000,N,0.000,K,A*3D
19:29:44  $GNGGA,192944.00,3741.56815,N,09720.28347,W,1,12,99.99,335.8,M,-26.4,M,,*48
19:29:44  $GNGSA,A,3,03,04,09,16,26,27,28,31,,,,,99.99,99.99,99.99,1*31
19:29:44  $GNGSA,A,3,78,66,77,76,65,67,,,,,,,99.99,99.99,99.99,2*3E
19:29:44  $GNGSA,A,3,25,02,03,07,08,30,,,,,,,99.99,99.99,99.99,3*39
19:29:44  $GNGSA,A,3,21,22,26,36,,,,,,,,,99.99,99.99,99.99,4*36
19:29:44  $GPGSV,3,1,11,03,52,227,44,04,57,321,47,07,10,262,44,09,27,310,39,1*64
19:29:44  $GPGSV,3,2,11,16,69,133,43,26,53,058,45,27,11,146,31,28,12,069,32,1*66
19:29:44  $GPGSV,3,3,11,31,39,056,48,44,42,210,43,46,35,225,37,1*54
19:29:44  $GPGSV,3,1,09,03,52,227,36,04,57,321,39,07,10,262,31,09,27,310,32,6*6F
19:29:44  $GPGSV,3,2,09,26,53,058,39,27,11,146,27,28,12,069,20,29,02,034,16,6*60
19:29:44  $GPGSV,3,3,09,31,39,056,39,6*5B
19:29:44  $GPGSV,1,1,01,06,01,306,,0*56
19:29:44  $GLGSV,2,1,07,65,24,143,42,66,76,118,49,67,44,329,51,75,01,038,25,1*7F
19:29:44  $GLGSV,2,2,07,76,57,025,49,77,68,247,45,78,10,224,35,1*44
19:29:44  $GLGSV,2,1,05,65,24,143,35,66,76,118,42,67,44,329,43,76,57,025,43,3*7B
19:29:44  $GLGSV,2,2,05,78,10,224,25,3*42
19:29:44  $GAGSV,2,1,06,02,64,078,49,03,29,113,30,07,40,312,45,08,76,062,48,2*7A
19:29:44  $GAGSV,2,2,06,25,18,041,29,30,47,189,48,2*7C
19:29:44  $GAGSV,2,1,05,02,64,078,45,07,40,312,43,08,76,062,45,25,18,041,26,7*7C
19:29:44  $GAGSV,2,2,05,30,47,189,43,7*41
19:29:44  $GAGSV,1,1,04,13,01,236,,26,06,284,,27,01,209,,33,00,328,,0*7E
19:29:44  $GBGSV,2,1,05,21,78,212,46,22,30,151,41,24,04,235,26,26,53,244,47,1*7D
19:29:44  $GBGSV,2,2,05,36,16,051,27,1*40
19:29:44  $GBGSV,1,1,01,14,,,39,3*7A
19:29:44  $GNGLL,3741.56815,N,09720.28347,W,192944.00,A,A*6E
19:29:45  $GNRMC,192945.00,A,3741.56815,N,09720.28347,W,0.000,,101124,,,A,V*0B
19:29:45  $GNVTG,,T,,M,0.000,N,0.000,K,A*3D
19:29:45  $GNGGA,192945.00,3741.56815,N,09720.28347,W,1,12,99.99,335.8,M,-26.4,M,,*49
19:29:45  $GNGSA,A,3,03,04,09,16,26,27,28,31,,,,,99.99,99.99,99.99,1*31
19:29:45  $GNGSA,A,3,78,66,77,76,65,67,,,,,,,99.99,99.99,99.99,2*3E
19:29:45  $GNGSA,A,3,25,02,03,07,08,30,,,,,,,99.99,99.99,99.99,3*39
19:29:45  $GNGSA,A,3,21,22,26,36,,,,,,,,,99.99,99.99,99.99,4*36
19:29:45  $GPGSV,3,1,11,03,52,227,43,04,57,321,47,07,10,262,44,09,27,310,39,1*63
19:29:45  $GPGSV,3,2,11,16,69,133,43,26,53,058,45,27,11,146,30,28,12,069,32,1*67
19:29:45  $GPGSV,3,3,11,31,39,056,48,44,42,210,43,46,35,225,36,1*55
19:29:45  $GPGSV,1,1,01,06,01,306,20,5*51
19:29:45  $GPGSV,3,1,09,03,52,227,36,04,57,321,39,07,10,262,31,09,27,310,32,6*6F
19:29:45  $GPGSV,3,2,09,26,53,058,39,27,11,146,27,28,12,069,20,29,02,034,14,6*62
19:29:45  $GPGSV,3,3,09,31,39,056,39,6*5B
19:29:45  $GLGSV,2,1,07,65,24,143,42,66,76,118,49,67,44,329,52,75,01,038,25,1*7C
19:29:45  $GLGSV,2,2,07,76,57,025,49,77,68,247,45,78,10,224,35,1*44
19:29:45  $GLGSV,2,1,05,65,24,143,35,66,76,118,42,67,44,329,43,76,57,025,43,3*7B
19:29:45  $GLGSV,2,2,05,78,10,224,25,3*42
19:29:45  $GAGSV,2,1,06,02,64,078,49,03,29,113,29,07,40,312,46,08,76,062,48,2*71
19:29:45  $GAGSV,2,2,06,25,18,041,29,30,47,189,48,2*7C
19:29:45  $GAGSV,2,1,05,02,64,078,45,07,40,312,43,08,76,062,45,25,18,041,25,7*7F
19:29:45  $GAGSV,2,2,05,30,47,189,43,7*41
19:29:45  $GAGSV,1,1,04,13,01,236,,26,06,284,,27,01,209,,33,00,328,,0*7E
19:29:45  $GBGSV,2,1,05,21,78,212,46,22,30,151,40,24,04,235,26,26,53,244,47,1*7C
19:29:45  $GBGSV,2,2,05,36,16,051,27,1*40
19:29:45  $GBGSV,1,1,01,14,,,39,3*7A
19:29:45  $GNGLL,3741.56815,N,09720.28347,W,192945.00,A,A*6F
19:29:46  $GNRMC,192946.00,A,3741.56815,N,09720.28347,W,0.000,,101124,,,A,V*08
19:29:46  $GNVTG,,T,,M,0.000,N,0.000,K,A*3D
19:29:46  $GNGGA,192946.00,3741.56815,N,09720.28347,W,1,12,99.99,335.8,M,-26.4,M,,*4A
19:29:46  $GNGSA,A,3,03,04,09,16,26,27,28,31,,,,,99.99,99.99,99.99,1*31
19:29:46  $GNGSA,A,3,78,66,77,76,65,67,,,,,,,99.99,99.99,99.99,2*3E
19:29:46  $GNGSA,A,3,25,02,03,07,08,30,,,,,,,99.99,99.99,99.99,3*39
19:29:46  $GNGSA,A,3,21,22,26,36,,,,,,,,,99.99,99.99,99.99,4*36
19:29:46  $GPGSV,3,1,11,03,52,227,43,04,57,321,48,07,10,262,44,09,27,310,39,1*6C
19:29:46  $GPGSV,3,2,11,16,69,133,43,26,53,058,45,27,11,146,30,28,12,069,31,1*64
19:29:46  $GPGSV,3,3,11,31,39,056,48,44,42,210,43,46,35,225,37,1*54
19:29:46  $GPGSV,3,1,10,03,52,227,36,04,57,321,39,06,01,306,17,07,10,262,32,6*6F
19:29:46  $GPGSV,3,2,10,09,27,310,32,26,53,058,39,27,11,146,27,28,12,069,21,6*6F
19:29:46  $GPGSV,3,3,10,29,02,034,11,31,39,056,39,6*6D
19:29:46  $GLGSV,2,1,07,65,24,143,42,66,76,118,49,67,44,329,52,75,01,038,24,1*7D
19:29:46  $GLGSV,2,2,07,76,57,025,49,77,68,247,45,78,10,224,34,1*45
19:29:46  $GLGSV,2,1,05,65,24,143,35,66,76,118,42,67,44,329,43,76,57,025,43,3*7B
19:29:46  $GLGSV,2,2,05,78,10,224,24,3*43
19:29:46  $GAGSV,2,1,06,02,64,078,49,03,29,113,29,07,40,312,45,08,76,062,48,2*72
19:29:46  $GAGSV,2,2,06,25,18,041,29,30,47,189,48,2*7C
19:29:46  $GAGSV,2,1,05,02,64,078,45,07,40,312,43,08,76,062,45,25,18,041,25,7*7F
19:29:46  $GAGSV,2,2,05,30,47,189,43,7*41
19:29:46  $GAGSV,1,1,04,13,01,236,,26,06,284,,27,01,209,,33,00,328,,0*7E
19:29:46  $GBGSV,2,1,05,21,78,212,46,22,30,151,40,24,04,235,26,26,53,244,47,1*7C
19:29:46  $GBGSV,2,2,05,36,15,051,26,1*42
19:29:46  $GBGSV,1,1,01,14,,,39,3*7A
19:29:46  $GNGLL,3741.56815,N,09720.28347,W,192946.00,A,A*6C
19:29:47  $GNRMC,192947.00,A,3741.56815,N,09720.28347,W,0.000,,101124,,,A,V*09
19:29:47  $GNVTG,,T,,M,0.000,N,0.000,K,A*3D
19:29:47  $GNGGA,192947.00,3741.56815,N,09720.28347,W,1,12,99.99,335.8,M,-26.4,M,,*4B
19:29:47  $GNGSA,A,3,03,04,09,16,26,27,28,31,,,,,99.99,99.99,99.99,1*31
19:29:47  $GNGSA,A,3,78,66,77,76,65,67,,,,,,,99.99,99.99,99.99,2*3E
19:29:47  $GNGSA,A,3,25,02,03,07,08,30,,,,,,,99.99,99.99,99.99,3*39
19:29:47  $GNGSA,A,3,21,22,26,36,,,,,,,,,99.99,99.99,99.99,4*36
19:29:47  $GPGSV,3,1,11,03,52,227,43,04,57,321,47,07,10,262,44,09,27,310,39,1*63
19:29:47  $GPGSV,3,2,11,16,69,133,43,26,53,058,45,27,11,146,30,28,12,069,31,1*64
19:29:47  $GPGSV,3,3,11,31,39,056,48,44,42,210,44,46,35,225,37,1*53
19:29:47  $GPGSV,3,1,09,03,52,227,36,04,57,321,39,07,10,262,32,09,27,310,32,6*6C
19:29:47  $GPGSV,3,2,09,26,53,058,39,27,11,146,27,28,12,069,21,29,02,034,09,6*6F
19:29:47  $GPGSV,3,3,09,31,39,056,39,6*5B
19:29:47  $GPGSV,1,1,01,06,01,306,,0*56
19:29:47  $GLGSV,2,1,07,65,24,143,41,66,76,118,49,67,44,329,52,75,01,038,24,1*7E
19:29:47  $GLGSV,2,2,07,76,57,025,49,77,68,247,45,78,10,224,33,1*42
19:29:47  $GLGSV,2,1,05,65,24,143,35,66,76,118,42,67,44,329,43,76,57,025,43,3*7B
19:29:47  $GLGSV,2,2,05,78,10,224,24,3*43
19:29:47  $GAGSV,2,1,06,02,64,078,49,03,29,113,30,07,40,312,45,08,76,062,48,2*7A
19:29:47  $GAGSV,2,2,06,25,18,041,29,30,47,189,48,2*7C
19:29:47  $GAGSV,2,1,05,02,64,078,45,07,40,312,43,08,76,062,45,25,18,041,24,7*7E
19:29:47  $GAGSV,2,2,05,30,47,189,43,7*41
19:29:47  $GAGSV,1,1,04,13,01,236,,26,06,284,,27,01,209,,33,00,328,,0*7E
19:29:47  $GBGSV,2,1,05,21,78,212,46,22,30,151,41,24,04,235,26,26,53,244,47,1*7D
19:29:47  $GBGSV,2,2,05,36,15,051,26,1*42
19:29:47  $GBGSV,1,1,01,14,,,39,3*7A
19:29:47  $GNGLL,3741.56815,N,09720.28347,W,192947.00,A,A*6D
19:29:48  $GNRMC,192948.00,A,3741.56815,N,09720.28347,W,0.000,,101124,,,A,V*06
19:29:48  $GNVTG,,T,,M,0.000,N,0.000,K,A*3D
19:29:48  $GNGGA,192948.00,3741.56815,N,09720.28347,W,1,12,99.99,335.8,M,-26.4,M,,*44
19:29:48  $GNGSA,A,3,03,04,09,16,26,27,28,31,,,,,99.99,99.99,99.99,1*31
19:29:48  $GNGSA,A,3,78,66,77,76,65,67,,,,,,,99.99,99.99,99.99,2*3E
19:29:48  $GNGSA,A,3,25,02,03,07,08,30,,,,,,,99.99,99.99,99.99,3*39
19:29:48  $GNGSA,A,3,21,22,26,36,,,,,,,,,99.99,99.99,99.99,4*36
19:29:48  $GPGSV,3,1,11,03,52,227,43,04,57,321,47,07,10,262,44,09,27,310,39,1*63
19:29:48  $GPGSV,3,2,11,16,69,133,43,26,53,058,45,27,11,146,30,28,12,069,31,1*64
19:29:48  $GPGSV,3,3,11,31,39,056,48,44,42,210,43,46,35,225,36,1*55
19:29:48  $GPGSV,2,1,08,03,52,227,36,04,57,321,39,07,10,262,32,09,27,310,32,6*6C
19:29:48  $GPGSV,2,2,08,26,53,058,39,27,11,146,27,28,12,069,22,31,39,056,39,6*6A
19:29:48  $GPGSV,1,1,02,06,01,306,,29,02,034,,0*6B
19:29:48  $GLGSV,2,1,07,65,24,143,41,66,76,118,49,67,44,329,52,75,01,038,21,1*7B
19:29:48  $GLGSV,2,2,07,76,57,025,49,77,68,247,45,78,10,224,33,1*42
19:29:48  $GLGSV,2,1,05,65,24,143,35,66,76,118,42,67,44,329,43,76,57,025,43,3*7B
19:29:48  $GLGSV,2,2,05,78,10,224,23,3*44
19:29:48  $GAGSV,2,1,06,02,64,078,49,03,29,113,29,07,40,312,45,08,76,062,48,2*72
19:29:48  $GAGSV,2,2,06,25,18,041,29,30,47,189,48,2*7C
19:29:48  $GAGSV,2,1,05,02,64,078,45,07,40,312,43,08,76,062,45,25,18,041,23,7*79
19:29:48  $GAGSV,2,2,05,30,47,189,43,7*41
19:29:48  $GAGSV,1,1,04,13,01,236,,26,06,284,,27,01,209,,33,00,328,,0*7E
19:29:48  $GBGSV,2,1,05,21,78,212,46,22,30,151,41,24,04,235,26,26,53,244,47,1*7D
19:29:48  $GBGSV,2,2,05,36,15,051,26,1*42
19:29:48  $GBGSV,1,1,01,14,,,38,3*7B
19:29:48  $GNGLL,3741.56815,N,09720.28347,W,192948.00,A,A*62
19:29:49  $GNRMC,192949.00,A,3741.56815,N,09720.28347,W,0.000,,101124,,,A,V*07
19:29:49  $GNVTG,,T,,M,0.000,N,0.000,K,A*3D
19:29:49  $GNGGA,192949.00,3741.56815,N,09720.28347,W,1,12,99.99,335.8,M,-26.4,M,,*45
19:29:49  $GNGSA,A,3,03,04,09,16,26,27,28,31,,,,,99.99,99.99,99.99,1*31
19:29:49  $GNGSA,A,3,78,66,77,76,65,67,,,,,,,99.99,99.99,99.99,2*3E
19:29:49  $GNGSA,A,3,25,02,03,07,08,30,,,,,,,99.99,99.99,99.99,3*39
19:29:49  $GNGSA,A,3,21,22,26,36,,,,,,,,,99.99,99.99,99.99,4*36
19:29:49  $GPGSV,3,1,11,03,52,227,43,04,57,321,47,07,10,262,44,09,27,310,39,1*63
19:29:49  $GPGSV,3,2,11,16,69,133,43,26,53,058,45,27,11,146,30,28,12,069,31,1*64
19:29:49  $GPGSV,3,3,11,31,39,056,48,44,42,210,43,46,35,225,36,1*55
19:29:49  $GPGSV,2,1,08,03,52,227,36,04,57,321,39,07,10,262,32,09,27,310,32,6*6C
19:29:49  $GPGSV,2,2,08,26,53,058,39,27,11,146,28,28,12,069,22,31,39,056,39,6*65
19:29:49  $GPGSV,1,1,02,06,01,306,,29,02,034,,0*6B
19:29:49  $GLGSV,2,1,07,65,24,143,41,66,76,118,49,67,44,329,52,75,01,038,18,1*71
19:29:49  $GLGSV,2,2,07,76,57,025,49,77,68,247,45,78,10,224,32,1*43
19:29:49  $GLGSV,2,1,05,65,24,143,35,66,76,118,42,67,44,329,43,76,57,025,43,3*7B
19:29:49  $GLGSV,2,2,05,78,10,224,23,3*44
19:29:49  $GAGSV,2,1,06,02,64,078,49,03,29,113,30,07,40,312,45,08,76,062,48,2*7A
19:29:49  $GAGSV,2,2,06,25,18,041,29,30,47,189,48,2*7C
19:29:49  $GAGSV,2,1,05,02,64,078,45,07,40,312,43,08,76,062,45,25,18,041,22,7*78
19:29:49  $GAGSV,2,2,05,30,47,189,43,7*41
19:29:49  $GAGSV,1,1,04,13,01,236,,26,06,284,,27,01,209,,33,00,328,,0*7E
19:29:49  $GBGSV,2,1,05,21,78,212,46,22,30,151,41,24,04,235,26,26,53,244,47,1*7D
19:29:49  $GBGSV,2,2,05,36,15,051,26,1*42
19:29:49  $GBGSV,1,1,01,14,,,38,3*7B
19:29:49  $GNGLL,3741.56815,N,09720.28347,W,192949.00,A,A*63
19:29:50  $GNRMC,192950.00,A,3741.56815,N,09720.28347,W,0.000,,101124,,,A,V*0F
19:29:50  $GNVTG,,T,,M,0.000,N,0.000,K,A*3D
19:29:50  $GNGGA,192950.00,3741.56815,N,09720.28347,W,1,12,99.99,335.8,M,-26.4,M,,*4D
19:29:50  $GNGSA,A,3,03,04,09,16,26,27,28,31,,,,,99.99,99.99,99.99,1*31
19:29:50  $GNGSA,A,3,78,66,77,76,65,67,,,,,,,99.99,99.99,99.99,2*3E
19:29:50  $GNGSA,A,3,25,02,03,07,08,30,,,,,,,99.99,99.99,99.99,3*39
19:29:50  $GNGSA,A,3,21,22,26,36,,,,,,,,,99.99,99.99,99.99,4*36
19:29:50  $GPGSV,3,1,11,03,52,227,43,04,57,321,47,07,10,262,44,09,27,310,39,1*63
19:29:50  $GPGSV,3,2,11,16,69,133,44,26,53,058,45,27,11,146,30,28,11,069,32,1*63
19:29:50  $GPGSV,3,3,11,31,39,056,49,44,42,210,44,46,35,225,36,1*53
19:29:50  $GPGSV,2,1,08,03,52,227,36,04,57,321,39,07,10,262,32,09,27,310,33,6*6D
19:29:50  $GPGSV,2,2,08,26,53,058,39,27,11,146,28,28,11,069,22,31,39,056,39,6*66
19:29:50  $GPGSV,1,1,02,06,01,306,,29,02,034,,0*6B
19:29:50  $GLGSV,2,1,06,65,24,143,40,66,76,118,49,67,44,329,52,76,57,025,49,1*79
19:29:50  $GLGSV,2,2,06,77,68,247,45,78,10,224,31,1*78
19:29:50  $GLGSV,2,1,05,65,24,143,35,66,76,118,42,67,44,329,43,76,57,025,43,3*7B
19:29:50  $GLGSV,2,2,05,78,10,224,22,3*45
19:29:50  $GLGSV,1,1,01,75,01,038,,0*40
19:29:50  $GAGSV,2,1,06,02,64,078,49,03,29,113,30,07,40,312,45,08,76,062,48,2*7A
19:29:50  $GAGSV,2,2,06,25,18,041,29,30,47,189,48,2*7C
19:29:50  $GAGSV,2,1,05,02,64,078,45,07,40,312,43,08,76,062,45,25,18,041,21,7*7B
19:29:50  $GAGSV,2,2,05,30,47,189,43,7*41
19:29:50  $GAGSV,1,1,04,13,01,236,,26,06,284,,27,01,209,,33,00,328,,0*7E
19:29:50  $GBGSV,2,1,05,21,78,212,46,22,30,151,40,24,04,235,26,26,53,244,47,1*7C
19:29:50  $GBGSV,2,2,05,36,15,051,26,1*42
19:29:50  $GBGSV,1,1,01,14,,,39,3*7A
19:29:50  $GNGLL,3741.56815,N,09720.28347,W,192950.00,A,A*6B
19:29:51  $GNRMC,192951.00,A,3741.56815,N,09720.28347,W,0.000,,101124,,,A,V*0E
19:29:51  $GNVTG,,T,,M,0.000,N,0.000,K,A*3D
19:29:51  $GNGGA,192951.00,3741.56815,N,09720.28347,W,1,12,99.99,335.8,M,-26.4,M,,*4C
19:29:51  $GNGSA,A,3,03,04,09,16,26,27,28,31,,,,,99.99,99.99,99.99,1*31
19:29:51  $GNGSA,A,3,78,66,77,76,65,67,,,,,,,99.99,99.99,99.99,2*3E
19:29:51  $GNGSA,A,3,25,02,03,07,08,30,,,,,,,99.99,99.99,99.99,3*39
19:29:51  $GNGSA,A,3,21,22,26,36,,,,,,,,,99.99,99.99,99.99,4*36
19:29:51  $GPGSV,3,1,11,03,52,227,43,04,57,321,47,07,10,262,44,09,27,310,39,1*63
19:29:51  $GPGSV,3,2,11,16,69,133,44,26,53,058,45,27,11,146,30,28,11,069,33,1*62
19:29:51  $GPGSV,3,3,11,31,39,056,49,44,42,210,44,46,35,225,37,1*52
19:29:51  $GPGSV,2,1,08,03,52,227,35,04,57,321,39,07,10,262,31,09,27,310,33,6*6D
19:29:51  $GPGSV,2,2,08,26,53,058,39,27,11,146,28,28,11,069,23,31,39,056,39,6*67
19:29:51  $GPGSV,1,1,02,06,01,306,,29,02,034,,0*6B
19:29:51  $GLGSV,2,1,06,65,24,143,40,66,76,118,49,67,44,329,51,76,57,025,50,1*72
19:29:51  $GLGSV,2,2,06,77,68,247,45,78,10,224,31,1*78
19:29:51  $GLGSV,2,1,05,65,24,143,35,66,76,118,42,67,44,329,43,76,57,025,43,3*7B
19:29:51  $GLGSV,2,2,05,78,10,224,21,3*46
19:29:51  $GLGSV,1,1,01,75,01,038,,0*40
19:29:51  $GAGSV,2,1,06,02,64,078,49,03,29,113,30,07,40,312,45,08,76,062,48,2*7A
19:29:51  $GAGSV,2,2,06,25,18,041,29,30,47,189,48,2*7C
19:29:51  $GAGSV,2,1,05,02,64,078,45,07,40,312,43,08,76,062,44,25,18,041,19,7*71
19:29:51  $GAGSV,2,2,05,30,47,189,43,7*41
19:29:51  $GAGSV,1,1,04,13,01,236,,26,06,284,,27,01,209,,33,00,328,,0*7E
19:29:51  $GBGSV,2,1,05,21,78,212,46,22,30,151,40,24,04,235,26,26,53,244,47,1*7C
19:29:51  $GBGSV,2,2,05,36,15,051,25,1*41
19:29:51  $GBGSV,1,1,01,14,,,38,3*7B
19:29:51  $GNGLL,3741.56815,N,09720.28347,W,192951.00,A,A*6A
19:29:52  $GNRMC,192952.00,A,3741.56815,N,09720.28347,W,0.000,,101124,,,A,V*0D
19:29:52  $GNVTG,,T,,M,0.000,N,0.000,K,A*3D
19:29:52  $GNGGA,192952.00,3741.56815,N,09720.28347,W,1,12,99.99,335.8,M,-26.4,M,,*4F
19:29:52  $GNGSA,A,3,03,04,09,16,26,27,28,31,,,,,99.99,99.99,99.99,1*31
19:29:52  $GNGSA,A,3,78,66,77,76,65,67,,,,,,,99.99,99.99,99.99,2*3E
19:29:52  $GNGSA,A,3,25,02,03,07,08,30,,,,,,,99.99,99.99,99.99,3*39
19:29:52  $GNGSA,A,3,21,22,26,36,,,,,,,,,99.99,99.99,99.99,4*36
19:29:52  $GPGSV,3,1,11,03,52,227,43,04,57,321,47,07,10,262,44,09,27,310,39,1*63
19:29:52  $GPGSV,3,2,11,16,69,133,44,26,53,058,45,27,11,146,30,28,11,069,33,1*62
19:29:52  $GPGSV,3,3,11,31,39,056,49,44,42,210,43,46,35,225,37,1*55
19:29:52  $GPGSV,2,1,08,03,52,227,35,04,57,321,39,07,10,262,31,09,27,310,33,6*6D
19:29:52  $GPGSV,2,2,08,26,53,058,39,27,11,146,28,28,11,069,23,31,39,056,39,6*67
19:29:52  $GPGSV,1,1,02,06,01,306,,29,02,034,,0*6B
19:29:52  $GLGSV,2,1,06,65,24,143,41,66,76,118,49,67,44,329,51,76,57,025,50,1*73
19:29:52  $GLGSV,2,2,06,77,68,247,45,78,10,224,31,1*78
19:29:52  $GLGSV,2,1,05,65,24,143,35,66,76,118,42,67,44,329,43,76,57,025,43,3*7B
19:29:52  $GLGSV,2,2,05,78,10,224,20,3*47
19:29:52  $GLGSV,1,1,01,75,01,038,,0*40
19:29:52  $GAGSV,2,1,06,02,64,078,49,03,29,113,29,07,40,312,45,08,76,062,48,2*72
19:29:52  $GAGSV,2,2,06,25,18,041,29,30,47,190,48,2*74
19:29:52  $GAGSV,2,1,05,02,64,078,45,07,40,312,43,08,76,062,44,25,18,041,18,7*70
19:29:52  $GAGSV,2,2,05,30,47,190,43,7*49
19:29:52  $GAGSV,1,1,04,13,01,236,,26,06,284,,27,01,209,,33,00,328,,0*7E
19:29:52  $GBGSV,2,1,05,21,78,212,46,22,30,151,40,24,04,235,26,26,53,244,47,1*7C
19:29:52  $GBGSV,2,2,05,36,15,051,25,1*41
19:29:52  $GBGSV,1,1,01,14,,,38,3*7B
19:29:52  $GNGLL,3741.56815,N,09720.28347,W,192952.00,A,A*69
19:29:53  $GNRMC,192953.00,A,3741.56815,N,09720.28347,W,0.000,,101124,,,A,V*0C
19:29:53  $GNVTG,,T,,M,0.000,N,0.000,K,A*3D
19:29:53  $GNGGA,192953.00,3741.56815,N,09720.28347,W,1,12,99.99,335.8,M,-26.4,M,,*4E
19:29:53  $GNGSA,A,3,03,04,09,16,26,27,28,31,,,,,99.99,99.99,99.99,1*31
19:29:53  $GNGSA,A,3,78,66,77,76,65,67,,,,,,,99.99,99.99,99.99,2*3E
19:29:53  $GNGSA,A,3,25,02,03,07,08,30,,,,,,,99.99,99.99,99.99,3*39
19:29:53  $GNGSA,A,3,21,22,26,36,,,,,,,,,99.99,99.99,99.99,4*36
19:29:53  $GPGSV,3,1,11,03,52,227,43,04,57,321,47,07,10,262,44,09,27,310,39,1*63
19:29:53  $GPGSV,3,2,11,16,69,133,44,26,53,058,45,27,11,146,30,28,11,069,34,1*65
19:29:53  $GPGSV,3,3,11,31,39,056,49,44,42,210,44,46,35,225,37,1*52
19:29:53  $GPGSV,1,1,01,29,02,034,05,5*5A
19:29:53  $GPGSV,2,1,08,03,52,227,35,04,57,321,39,07,10,262,31,09,27,310,33,6*6D
19:29:53  $GPGSV,2,2,08,26,53,058,39,27,11,146,27,28,11,069,23,31,39,056,39,6*68
19:29:53  $GPGSV,1,1,01,06,01,306,,0*56
19:29:53  $GLGSV,2,1,06,65,24,143,41,66,76,118,49,67,44,329,51,76,57,025,50,1*73
19:29:53  $GLGSV,2,2,06,77,68,247,45,78,10,224,30,1*79
19:29:53  $GLGSV,2,1,05,65,24,143,35,66,76,118,42,67,44,329,43,76,57,025,44,3*7C
19:29:53  $GLGSV,2,2,05,78,10,224,18,3*4C
19:29:53  $GLGSV,1,1,01,75,01,039,,0*41
19:29:53  $GAGSV,2,1,06,02,64,078,49,03,29,113,29,07,40,312,45,08,76,062,48,2*72
19:29:53  $GAGSV,2,2,06,25,18,041,29,30,47,190,48,2*74
19:29:53  $GAGSV,2,1,05,02,64,078,45,07,40,312,43,08,76,062,44,25,18,041,18,7*70
19:29:53  $GAGSV,2,2,05,30,47,190,43,7*49
19:29:53  $GAGSV,1,1,04,13,01,236,,26,06,284,,27,01,209,,33,00,328,,0*7E
19:29:53  $GBGSV,2,1,05,21,78,212,46,22,30,151,41,24,04,235,26,26,53,244,47,1*7D
19:29:53  $GBGSV,2,2,05,36,15,051,25,1*41
19:29:53  $GBGSV,1,1,01,14,,,38,3*7B
19:29:53  $GNGLL,3741.56815,N,09720.28347,W,192953.00,A,A*68
19:29:54  $GNRMC,192954.00,A,3741.56815,N,09720.28347,W,0.000,,101124,,,A,V*0B
19:29:54  $GNVTG,,T,,M,0.000,N,0.000,K,A*3D
19:29:54  $GNGGA,192954.00,3741.56815,N,09720.28347,W,1,12,99.99,335.8,M,-26.4,M,,*49
19:29:54  $GNGSA,A,3,03,04,09,16,26,27,28,31,,,,,99.99,99.99,99.99,1*31
19:29:54  $GNGSA,A,3,78,66,77,76,65,67,,,,,,,99.99,99.99,99.99,2*3E
19:29:54  $GNGSA,A,3,25,02,03,07,08,30,,,,,,,99.99,99.99,99.99,3*39
19:29:54  $GNGSA,A,3,21,22,26,36,,,,,,,,,99.99,99.99,99.99,4*36
19:29:54  $GPGSV,3,1,11,03,52,227,43,04,57,321,47,07,10,262,44,09,27,310,39,1*63
19:29:54  $GPGSV,3,2,11,16,69,133,44,26,53,058,45,27,11,146,29,28,11,069,34,1*6D
19:29:54  $GPGSV,3,3,11,31,39,056,49,44,42,210,44,46,35,225,37,1*52
19:29:54  $GPGSV,1,1,01,29,02,034,08,5*57
19:29:54  $GPGSV,2,1,08,03,52,227,35,04,57,321,39,07,10,262,31,09,27,310,33,6*6D
19:29:54  $GPGSV,2,2,08,26,53,058,39,27,11,146,27,28,11,069,23,31,39,056,39,6*68
19:29:54  $GPGSV,1,1,01,06,01,306,,0*56
19:29:54  $GLGSV,2,1,06,65,24,143,41,66,76,118,49,67,44,329,51,76,57,025,50,1*73
19:29:54  $GLGSV,2,2,06,77,68,247,45,78,10,224,30,1*79
19:29:54  $GLGSV,2,1,05,65,24,143,35,66,76,118,42,67,44,329,43,76,57,025,44,3*7C
19:29:54  $GLGSV,2,2,05,78,10,224,17,3*43
19:29:54  $GLGSV,1,1,01,75,01,039,,0*41
19:29:54  $GAGSV,2,1,06,02,64,078,49,03,29,113,29,07,40,312,45,08,76,062,48,2*72
19:29:54  $GAGSV,2,2,06,25,18,041,29,30,47,190,48,2*74
19:29:54  $GAGSV,2,1,05,02,64,078,45,07,40,312,43,08,76,062,44,25,18,041,19,7*71
19:29:54  $GAGSV,2,2,05,30,47,190,43,7*49
19:29:54  $GAGSV,1,1,04,13,01,236,,26,06,284,,27,01,209,,33,00,328,,0*7E
19:29:54  $GBGSV,2,1,05,21,78,212,46,22,30,151,40,24,04,235,26,26,53,244,47,1*7C
19:29:54  $GBGSV,2,2,05,36,15,051,25,1*41
19:29:54  $GBGSV,1,1,01,14,,,38,3*7B
19:29:54  $GNGLL,3741.56815,N,09720.28347,W,192954.00,A,A*6F
19:29:55  $GNRMC,192955.00,A,3741.56815,N,09720.28347,W,0.000,,101124,,,A,V*0A
19:29:55  $GNVTG,,T,,M,0.000,N,0.000,K,A*3D
19:29:55  $GNGGA,192955.00,3741.56815,N,09720.28347,W,1,12,99.99,335.8,M,-26.4,M,,*48
19:29:55  $GNGSA,A,3,03,04,09,16,26,27,28,31,,,,,99.99,99.99,99.99,1*31
19:29:55  $GNGSA,A,3,78,66,77,76,65,67,,,,,,,99.99,99.99,99.99,2*3E
19:29:55  $GNGSA,A,3,25,02,03,07,08,30,,,,,,,99.99,99.99,99.99,3*39
19:29:55  $GNGSA,A,3,21,22,26,36,,,,,,,,,99.99,99.99,99.99,4*36
19:29:55  $GPGSV,3,1,11,03,52,227,43,04,57,321,47,07,10,262,44,09,27,310,39,1*63
19:29:55  $GPGSV,3,2,11,16,69,133,44,26,53,058,45,27,11,146,31,28,11,069,35,1*65
19:29:55  $GPGSV,3,3,11,31,39,056,50,44,42,210,44,46,35,225,36,1*5B
19:29:55  $GPGSV,3,1,09,03,52,227,35,04,57,321,39,07,10,262,31,09,27,310,33,6*6D
19:29:55  $GPGSV,3,2,09,26,53,058,39,27,11,146,28,28,11,069,23,29,02,034,11,6*68
19:29:55  $GPGSV,3,3,09,31,39,056,39,6*5B
19:29:55  $GPGSV,1,1,01,06,01,306,,0*56
19:29:55  $GLGSV,2,1,06,65,24,143,41,66,76,118,49,67,44,329,51,76,57,025,50,1*73
19:29:55  $GLGSV,2,2,06,77,68,247,45,78,10,224,30,1*79
19:29:55  $GLGSV,2,1,05,65,24,143,34,66,76,118,42,67,44,329,43,76,57,025,44,3*7D
19:29:55  $GLGSV,2,2,05,78,10,224,15,3*41
19:29:55  $GLGSV,1,1,01,75,01,039,,0*41
19:29:55  $GAGSV,2,1,06,02,64,078,49,03,29,113,29,07,40,312,45,08,76,062,48,2*72
19:29:55  $GAGSV,2,2,06,25,18,041,29,30,47,190,48,2*74
19:29:55  $GAGSV,2,1,06,02,64,078,45,03,29,113,24,07,40,312,43,08,76,062,44,7*7C
19:29:55  $GAGSV,2,2,06,25,18,041,19,30,47,190,43,7*79
19:29:55  $GAGSV,1,1,04,13,01,236,,26,06,284,,27,01,209,,33,00,328,,0*7E
19:29:55  $GBGSV,2,1,05,21,78,212,46,22,30,151,40,24,04,235,26,26,53,244,47,1*7C
19:29:55  $GBGSV,2,2,05,36,15,051,25,1*41
19:29:55  $GBGSV,1,1,01,14,,,38,3*7B
19:29:55  $GNGLL,3741.56815,N,09720.28347,W,192955.00,A,A*6E
19:29:56  $GNRMC,192956.00,A,3741.56815,N,09720.28347,W,0.000,,101124,,,A,V*09
19:29:56  $GNVTG,,T,,M,0.000,N,0.000,K,A*3D
19:29:56  $GNGGA,192956.00,3741.56815,N,09720.28347,W,1,12,99.99,335.8,M,-26.4,M,,*4B
19:29:56  $GNGSA,A,3,03,04,09,16,26,27,28,31,,,,,99.99,99.99,99.99,1*31
19:29:56  $GNGSA,A,3,78,66,77,76,65,67,,,,,,,99.99,99.99,99.99,2*3E
19:29:56  $GNGSA,A,3,25,02,03,07,08,30,,,,,,,99.99,99.99,99.99,3*39
19:29:56  $GNGSA,A,3,21,22,26,36,,,,,,,,,99.99,99.99,99.99,4*36
19:29:56  $GPGSV,3,1,11,03,52,227,44,04,57,321,47,07,10,262,44,09,27,310,39,1*64
19:29:56  $GPGSV,3,2,11,16,69,133,44,26,53,058,45,27,11,146,31,28,11,069,35,1*65
19:29:56  $GPGSV,3,3,11,31,39,056,50,44,42,210,44,46,35,225,37,1*5A
19:29:56  $GPGSV,3,1,09,03,52,227,35,04,57,321,39,07,10,262,31,09,27,310,33,6*6D
19:29:56  $GPGSV,3,2,09,26,53,058,39,27,11,146,28,28,11,069,22,29,02,034,14,6*6C
19:29:56  $GPGSV,3,3,09,31,39,056,39,6*5B
19:29:56  $GPGSV,1,1,01,06,01,306,,0*56
19:29:56  $GLGSV,2,1,06,65,24,143,41,66,76,118,49,67,44,329,51,76,57,025,50,1*73
19:29:56  $GLGSV,2,2,06,77,68,247,45,78,10,224,29,1*71
19:29:56  $GLGSV,2,1,05,65,24,143,34,66,76,118,43,67,44,329,42,76,57,025,43,3*7A
19:29:56  $GLGSV,2,2,05,78,10,224,13,3*47
19:29:56  $GLGSV,1,1,01,75,01,039,,0*41
19:29:56  $GAGSV,2,1,06,02,64,078,49,03,29,113,29,07,40,312,46,08,76,062,48,2*71
19:29:56  $GAGSV,2,2,06,25,18,041,29,30,47,190,48,2*74
19:29:56  $GAGSV,2,1,06,02,64,078,45,03,29,113,26,07,40,312,43,08,76,062,44,7*7E
19:29:56  $GAGSV,2,2,06,25,18,041,18,30,47,190,43,7*78
19:29:56  $GAGSV,1,1,04,13,01,236,,26,06,284,,27,01,209,,33,00,328,,0*7E
19:29:56  $GBGSV,2,1,05,21,78,212,45,22,30,151,39,24,04,235,26,26,53,244,47,1*71
19:29:56  $GBGSV,2,2,05,36,15,051,24,1*40
19:29:56  $GBGSV,1,1,01,14,,,38,3*7B
19:29:56  $GNGLL,3741.56815,N,09720.28347,W,192956.00,A,A*6D
19:29:57  $GNRMC,192957.00,A,3741.56815,N,09720.28347,W,0.000,,101124,,,A,V*08
19:29:57  $GNVTG,,T,,M,0.000,N,0.000,K,A*3D
19:29:57  $GNGGA,192957.00,3741.56815,N,09720.28347,W,1,12,99.99,335.8,M,-26.4,M,,*4A
19:29:57  $GNGSA,A,3,03,04,09,16,26,27,28,31,,,,,99.99,99.99,99.99,1*31
19:29:57  $GNGSA,A,3,78,66,77,76,65,67,,,,,,,99.99,99.99,99.99,2*3E
19:29:57  $GNGSA,A,3,25,02,03,07,08,30,,,,,,,99.99,99.99,99.99,3*39
19:29:57  $GNGSA,A,3,21,22,26,36,,,,,,,,,99.99,99.99,99.99,4*36
19:29:57  $GPGSV,3,1,11,03,52,227,44,04,57,321,47,07,10,262,44,09,27,310,39,1*64
19:29:57  $GPGSV,3,2,11,16,69,133,44,26,53,058,46,27,11,146,31,28,11,069,36,1*65
19:29:57  $GPGSV,3,3,11,31,39,056,50,44,42,210,44,46,35,225,36,1*5B
19:29:57  $GPGSV,3,1,09,03,52,227,35,04,57,321,38,07,10,262,31,09,27,310,33,6*6C
19:29:57  $GPGSV,3,2,09,26,53,058,39,27,11,146,28,28,11,069,21,29,02,034,14,6*6F
19:29:57  $GPGSV,3,3,09,31,39,056,39,6*5B
19:29:57  $GPGSV,1,1,01,06,01,306,,0*56
19:29:57  $GLGSV,2,1,06,65,24,143,41,66,76,118,49,67,44,329,51,76,57,025,50,1*73
19:29:57  $GLGSV,2,2,06,77,68,247,45,78,10,224,29,1*71
19:29:57  $GLGSV,2,1,05,65,24,143,34,66,76,118,42,67,44,329,42,76,57,025,44,3*7C
19:29:57  $GLGSV,2,2,05,78,10,224,13,3*47
19:29:57  $GLGSV,1,1,01,75,01,039,,0*41
19:29:57  $GAGSV,2,1,06,02,64,078,49,03,29,113,29,07,40,312,46,08,76,062,48,2*71
19:29:57  $GAGSV,2,2,06,25,18,041,30,30,47,190,49,2*7D
19:29:57  $GAGSV,2,1,06,02,64,078,45,03,29,113,27,07,40,312,43,08,76,062,44,7*7F
19:29:57  $GAGSV,2,2,06,25,18,041,16,30,47,190,43,7*76
19:29:57  $GAGSV,1,1,04,13,01,236,,26,06,284,,27,01,209,,33,00,328,,0*7E
19:29:57  $GBGSV,2,1,05,21,78,212,46,22,30,151,39,24,04,235,26,26,53,244,47,1*72
19:29:57  $GBGSV,2,2,05,36,15,051,25,1*41
19:29:57  $GBGSV,1,1,01,14,,,38,3*7B
19:29:57  $GNGLL,3741.56815,N,09720.28347,W,192957.00,A,A*6C
19:29:58  $GNRMC,192958.00,A,3741.56815,N,09720.28347,W,0.000,,101124,,,A,V*07
19:29:58  $GNVTG,,T,,M,0.000,N,0.000,K,A*3D
19:29:58  $GNGGA,192958.00,3741.56815,N,09720.28347,W,1,12,99.99,335.8,M,-26.4,M,,*45
19:29:58  $GNGSA,A,3,03,04,09,16,26,27,28,31,,,,,99.99,99.99,99.99,1*31
19:29:58  $GNGSA,A,3,78,66,77,76,65,67,,,,,,,99.99,99.99,99.99,2*3E
19:29:58  $GNGSA,A,3,25,02,03,07,08,30,,,,,,,99.99,99.99,99.99,3*39
19:29:58  $GNGSA,A,3,21,22,26,36,,,,,,,,,99.99,99.99,99.99,4*36
19:29:58  $GPGSV,3,1,11,03,52,227,44,04,57,321,47,07,10,262,44,09,27,310,39,1*64
19:29:58  $GPGSV,3,2,11,16,69,133,44,26,53,058,46,27,11,146,31,28,11,069,36,1*65
19:29:58  $GPGSV,3,3,11,31,39,056,49,44,42,210,44,46,35,225,37,1*52
19:29:58  $GPGSV,3,1,09,03,52,227,35,04,57,321,39,07,10,262,31,09,27,310,33,6*6D
19:29:58  $GPGSV,3,2,09,26,53,058,39,27,11,146,28,28,11,069,21,29,02,034,15,6*6E
19:29:58  $GPGSV,3,3,09,31,39,056,39,6*5B
19:29:58  $GPGSV,1,1,01,06,01,306,,0*56
19:29:58  $GLGSV,2,1,06,65,24,143,41,66,76,118,49,67,44,329,51,76,57,025,50,1*73
19:29:58  $GLGSV,2,2,06,77,68,247,45,78,10,224,31,1*78
19:29:58  $GLGSV,2,1,05,65,24,143,34,66,76,118,42,67,44,329,42,76,57,025,44,3*7C
19:29:58  $GLGSV,2,2,05,78,10,224,12,3*46
19:29:58  $GLGSV,1,1,01,75,01,039,,0*41
19:29:58  $GAGSV,2,1,06,02,64,078,49,03,29,113,29,07,40,312,46,08,76,062,48,2*71
19:29:58  $GAGSV,2,2,06,25,18,041,29,30,47,190,49,2*75
