17:08:08  $GNGLL,3741.56076,N,09720.28563,W,170808.00,A,A*66
17:08:09  $GNRMC,170809.00,A,3741.56078,N,09720.28560,W,0.009,,101124,,,A,V*07
17:08:09  $GNVTG,,T,,M,0.009,N,0.017,K,A*32
17:08:09  $GNGGA,170809.00,3741.56078,N,09720.28560,W,1,11,0.90,384.8,M,-26.4,M,,*7C
17:08:09  $GNGSA,A,3,03,21,25,26,28,31,32,10,,,,,1.61,0.90,1.34,1*03
17:08:09  $GNGSA,A,3,,,,,,,,,,,,,1.61,0.90,1.34,2*0B
17:08:09  $GNGSA,A,3,,,,,,,,,,,,,1.61,0.90,1.34,3*0A
17:08:09  $GNGSA,A,3,19,22,36,,,,,,,,,,1.61,0.90,1.34,4*00
17:08:09  $GPGSV,3,1,11,02,26,260,43,03,32,316,41,10,20,143,43,21,24,241,40,1*64
17:08:09  $GPGSV,3,2,11,25,22,051,31,26,34,158,43,28,66,040,44,31,77,236,47,1*64
17:08:09  $GPGSV,3,3,11,32,39,075,47,44,42,210,43,46,35,225,37,1*59
17:08:09  $GPGSV,2,1,07,03,32,316,37,10,20,143,36,25,22,051,28,26,34,158,37,6*67
17:08:09  $GPGSV,2,2,07,28,66,040,44,31,77,236,42,32,39,075,38,6*5B
17:08:09  $GPGSV,1,1,02,04,08,281,,16,07,177,,0*61
17:08:09  $GLGSV,1,1,03,75,,,49,76,,,47,,,,40,1*72
17:08:09  $GLGSV,1,1,02,,,,40,,,,46,3*7E
17:08:09  $GAGSV,1,1,03,02,,,43,03,,,45,08,,,46,7*7D
17:08:09  $GBGSV,1,1,04,11,04,308,29,19,29,112,33,22,76,046,47,36,62,078,48,1*75
17:08:09  $GBGSV,1,1,01,19,29,112,08,3*4C

17:08:09  $GNGLL,3741.56078,N,09720.28560,W,170809.00,A,A*6A
17:08:10  $GNRMC,170810.00,A,3741.56079,N,09720.28556,W,0.008,,101124,,,A,V*0A
17:08:10  $GNVTG,,T,,M,0.008,N,0.015,K,A*31
17:08:10  $GNGGA,170810.00,3741.56079,N,09720.28556,W,1,11,0.90,384.7,M,-26.4,M,,*7F
17:08:10  $GNGSA,A,3,03,21,25,26,28,31,32,10,,,,,1.61,0.90,1.34,1*03
17:08:10  $GNGSA,A,3,,,,,,,,,,,,,1.61,0.90,1.34,2*0B
17:08:10  $GNGSA,A,3,,,,,,,,,,,,,1.61,0.90,1.34,3*0A
17:08:10  $GNGSA,A,3,19,22,36,,,,,,,,,,1.61,0.90,1.34,4*00
17:08:10  $GPGSV,3,1,11,02,26,260,43,03,32,316,41,10,20,143,43,21,24,241,39,1*6A
17:08:10  $GPGSV,3,2,11,25,22,051,31,26,34,158,43,28,66,040,44,31,77,236,47,1*64
17:08:10  $GPGSV,3,3,11,32,39,075,47,44,42,210,43,46,35,225,37,1*59
17:08:10  $GPGSV,2,1,07,03,32,316,37,10,20,143,35,25,22,051,28,26,34,158,36,6*65
17:08:10  $GPGSV,2,2,07,28,66,040,43,31,77,236,41,32,39,075,37,6*50
17:08:10  $GPGSV,1,1,02,04,08,281,,16,07,177,,0*61
17:08:10  $GLGSV,1,1,04,75,,,49,76,,,47,,,,39,,,,47,1*78
17:08:10  $GLGSV,1,1,02,,,,41,,,,46,3*7F
17:08:10  $GAGSV,1,1,03,02,,,43,03,,,45,08,,,46,7*7D
17:08:10  $GBGSV,1,1,04,11,04,308,29,19,29,112,32,22,76,046,46,36,62,078,48,1*75
17:08:10  $GBGSV,1,1,02,07,,,20,19,29,112,07,3*45
17:08:10  $GNGLL,3741.56079,N,09720.28556,W,170810.00,A,A*66
17:08:11  $GNRMC,170811.00,A,3741.56080,N,09720.28552,W,0.008,,101124,,,A,V*09
17:08:11  $GNVTG,,T,,M,0.008,N,0.015,K,A*31
17:08:11  $GNGGA,170811.00,3741.56080,N,09720.28552,W,1,11,0.90,384.7,M,-26.4,M,,*7C
17:08:11  $GNGSA,A,3,03,21,25,26,28,31,32,10,,,,,1.61,0.90,1.34,1*03
17:08:11  $GNGSA,A,3,,,,,,,,,,,,,1.61,0.90,1.34,2*0B
17:08:11  $GNGSA,A,3,,,,,,,,,,,,,1.61,0.90,1.34,3*0A
17:08:11  $GNGSA,A,3,19,22,36,,,,,,,,,,1.61,0.90,1.34,4*00
17:08:11  $GPGSV,3,1,11,02,26,260,43,03,32,316,41,10,20,143,43,21,24,241,39,1*6A
17:08:11  $GPGSV,3,2,11,25,22,051,31,26,34,158,43,28,66,040,44,31,77,236,47,1*64
17:08:11  $GPGSV,3,3,11,32,39,075,47,44,42,210,43,46,35,225,37,1*59
17:08:11  $GPGSV,2,1,07,03,32,316,37,10,20,143,35,25,22,051,28,26,34,158,36,6*65
17:08:11  $GPGSV,2,2,07,28,66,040,43,31,77,236,41,32,39,075,37,6*50
17:08:11  $GPGSV,1,1,02,04,08,281,,16,07,177,,0*61
17:08:11  $GLGSV,1,1,04,75,,,49,76,,,47,,,,39,,,,47,1*78
17:08:11  $GLGSV,1,1,02,,,,42,,,,46,3*7C
17:08:11  $GAGSV,1,1,03,02,,,43,03,,,45,08,,,46,7*7D
17:08:11  $GBGSV,1,1,04,11,04,308,29,19,29,112,32,22,76,046,46,36,62,078,48,1*75
17:08:11  $GBGSV,1,1,02,11,04,308,34,19,29,112,08,3*77
17:08:11  $GNGLL,3741.56080,N,09720.28552,W,170811.00,A,A*65
17:08:12  $GNRMC,170812.00,A,3741.56080,N,09720.28548,W,0.007,,101124,,,A,V*0E
17:08:12  $GNVTG,,T,,M,0.007,N,0.013,K,A*38
17:08:12  $GNGGA,170812.00,3741.56080,N,09720.28548,W,1,11,0.90,384.6,M,-26.4,M,,*75
17:08:12  $GNGSA,A,3,03,21,25,26,28,31,32,10,,,,,1.61,0.90,1.34,1*03
17:08:12  $GNGSA,A,3,,,,,,,,,,,,,1.61,0.90,1.34,2*0B
17:08:12  $GNGSA,A,3,,,,,,,,,,,,,1.61,0.90,1.34,3*0A
17:08:12  $GNGSA,A,3,19,22,36,,,,,,,,,,1.61,0.90,1.34,4*00
17:08:12  $GPGSV,3,1,11,02,26,260,43,03,32,316,41,10,20,143,43,21,24,241,39,1*6A
17:08:12  $GPGSV,3,2,11,25,22,051,31,26,34,158,43,28,66,040,45,31,77,236,47,1*65
17:08:12  $GPGSV,3,3,11,32,39,075,46,44,42,210,43,46,35,225,37,1*58
17:08:12  $GPGSV,2,1,07,03,32,316,37,10,20,143,35,25,22,051,28,26,34,158,36,6*65
17:08:12  $GPGSV,2,2,07,28,66,040,43,31,77,236,41,32,39,075,37,6*50
17:08:12  $GPGSV,1,1,02,04,08,281,,16,07,177,,0*61
17:08:12  $GLGSV,1,1,04,75,,,49,76,,,47,,,,40,,,,47,1*76
17:08:12  $GLGSV,1,1,02,,,,42,,,,46,3*7C
17:08:12  $GAGSV,1,1,03,02,,,43,03,,,45,08,,,46,7*7D
17:08:12  $GBGSV,1,1,04,11,04,308,29,19,29,112,31,22,76,046,46,36,62,078,48,1*76
17:08:12  $GBGSV,1,1,02,11,04,308,34,19,29,112,08,3*77
17:08:12  $GNGLL,3741.56080,N,09720.28548,W,170812.00,A,A*6D
17:08:13  $GNRMC,170813.00,A,3741.56080,N,09720.28544,W,0.007,,101124,,,A,V*03
17:08:13  $GNVTG,,T,,M,0.007,N,0.014,K,A*3F
17:08:13  $GNGGA,170813.00,3741.56080,N,09720.28544,W,1,11,0.90,384.6,M,-26.4,M,,*78
17:08:13  $GNGSA,A,3,03,21,25,26,28,31,32,10,,,,,1.61,0.90,1.34,1*03
17:08:13  $GNGSA,A,3,,,,,,,,,,,,,1.61,0.90,1.34,2*0B
17:08:13  $GNGSA,A,3,,,,,,,,,,,,,1.61,0.90,1.34,3*0A
17:08:13  $GNGSA,A,3,19,22,36,,,,,,,,,,1.61,0.90,1.34,4*00
17:08:13  $GPGSV,3,1,11,02,26,260,43,03,32,316,41,10,20,143,43,21,24,241,39,1*6A
17:08:13  $GPGSV,3,2,11,25,22,051,32,26,34,158,42,28,66,040,44,31,77,236,47,1*66
17:08:13  $GPGSV,3,3,11,32,39,075,47,44,42,210,43,46,35,225,37,1*59
17:08:13  $GPGSV,2,1,07,03,32,316,37,10,20,143,35,25,22,051,28,26,34,158,36,6*65
17:08:13  $GPGSV,2,2,07,28,66,040,43,31,77,236,41,32,39,075,37,6*50
17:08:13  $GPGSV,1,1,02,04,08,281,,16,07,177,,0*61
17:08:13  $GLGSV,1,1,04,75,,,49,76,,,48,,,,40,,,,47,1*79
17:08:13  $GLGSV,1,1,02,,,,43,,,,46,3*7D
17:08:13  $GAGSV,1,1,03,02,,,43,03,,,45,08,,,46,7*7D
17:08:13  $GBGSV,2,1,05,11,04,308,28,19,29,112,31,21,,,40,22,76,046,46,1*40
17:08:13  $GBGSV,2,2,05,36,62,078,48,1*41
17:08:13  $GBGSV,1,1,02,11,04,308,33,19,29,112,08,3*70
17:08:13  $GNGLL,3741.56080,N,09720.28544,W,170813.00,A,A*60
17:08:14  $GNRMC,170814.00,A,3741.56080,N,09720.28539,W,0.007,,101124,,,A,V*0E
17:08:14  $GNVTG,,T,,M,0.007,N,0.012,K,A*39
17:08:14  $GNGGA,170814.00,3741.56080,N,09720.28539,W,1,11,0.90,384.6,M,-26.4,M,,*75
17:08:14  $GNGSA,A,3,03,21,25,26,28,31,32,10,,,,,1.61,0.90,1.33,1*04
17:08:14  $GNGSA,A,3,,,,,,,,,,,,,1.61,0.90,1.33,2*0C
17:08:14  $GNGSA,A,3,,,,,,,,,,,,,1.61,0.90,1.33,3*0D
17:08:14  $GNGSA,A,3,19,22,36,,,,,,,,,,1.61,0.90,1.33,4*07
17:08:14  $GPGSV,3,1,11,02,26,260,43,03,32,316,41,10,20,143,43,21,24,241,39,1*6A
17:08:14  $GPGSV,3,2,11,25,22,051,32,26,34,158,42,28,66,040,44,31,77,236,47,1*66
17:08:14  $GPGSV,3,3,11,32,39,075,48,44,42,210,43,46,35,225,37,1*56
17:08:14  $GPGSV,1,1,01,04,08,281,17,5*50
17:08:14  $GPGSV,2,1,07,03,32,316,37,10,20,143,34,25,22,051,28,26,34,158,36,6*64
17:08:14  $GPGSV,2,2,07,28,66,040,43,31,77,236,41,32,39,075,38,6*5F
17:08:14  $GPGSV,1,1,01,16,07,177,,0*55
17:08:14  $GLGSV,1,1,04,75,,,48,76,,,48,,,,40,,,,47,1*78
17:08:14  $GLGSV,1,1,03,,,,40,,,,43,,,,46,3*78
17:08:14  $GAGSV,1,1,03,02,,,42,03,,,45,08,,,46,7*7C
17:08:14  $GBGSV,2,1,05,11,04,308,28,19,29,112,30,21,,,40,22,76,046,46,1*41
17:08:14  $GBGSV,2,2,05,36,62,078,48,1*41
17:08:14  $GBGSV,1,1,02,11,04,308,33,19,29,112,08,3*70
17:08:14  $GNGLL,3741.56080,N,09720.28539,W,170814.00,A,A*6D
17:08:15  $GNRMC,170815.00,A,3741.56080,N,09720.28533,W,0.007,,101124,,,A,V*05
17:08:15  $GNVTG,,T,,M,0.007,N,0.012,K,A*39
17:08:15  $GNGGA,170815.00,3741.56080,N,09720.28533,W,1,11,0.90,384.5,M,-26.4,M,,*7D
17:08:15  $GNGSA,A,3,03,21,25,26,28,31,32,10,,,,,1.61,0.90,1.33,1*04
17:08:15  $GNGSA,A,3,,,,,,,,,,,,,1.61,0.90,1.33,2*0C
17:08:15  $GNGSA,A,3,,,,,,,,,,,,,1.61,0.90,1.33,3*0D
17:08:15  $GNGSA,A,3,19,22,36,,,,,,,,,,1.61,0.90,1.33,4*07
17:08:15  $GPGSV,3,1,11,02,26,260,43,03,32,316,41,10,20,143,43,21,24,241,39,1*6A
17:08:15  $GPGSV,3,2,11,25,22,051,33,26,34,158,42,28,66,040,44,31,77,236,47,1*67
17:08:15  $GPGSV,3,3,11,32,39,075,48,44,42,210,43,46,35,225,37,1*56
17:08:15  $GPGSV,1,1,01,04,08,281,16,5*51
17:08:15  $GPGSV,2,1,07,03,32,316,37,10,20,143,34,25,22,051,27,26,34,158,35,6*68
17:08:15  $GPGSV,2,2,07,28,66,040,43,31,77,236,41,32,39,075,37,6*50
17:08:15  $GPGSV,1,1,01,16,07,177,,0*55
17:08:15  $GLGSV,1,1,04,75,,,48,76,,,48,,,,47,,,,41,1*79
17:08:15  $GLGSV,1,1,03,,,,46,,,,43,,,,40,3*78
17:08:15  $GAGSV,1,1,03,02,,,43,03,,,45,08,,,46,7*7D
17:08:15  $GBGSV,1,1,04,19,29,112,30,21,,,40,22,76,046,46,36,62,078,48,1*44
17:08:15  $GBGSV,1,1,02,11,04,308,33,19,29,112,08,3*70
17:08:15  $GNGLL,3741.56080,N,09720.28533,W,170815.00,A,A*66
17:08:16  $GNRMC,170816.00,A,3741.56080,N,09720.28528,W,0.006,,101124,,,A,V*0D
17:08:16  $GNVTG,,T,,M,0.006,N,0.011,K,A*3B
17:08:16  $GNGGA,170816.00,3741.56080,N,09720.28528,W,1,11,0.90,384.5,M,-26.4,M,,*74
17:08:16  $GNGSA,A,3,03,21,25,26,28,31,32,10,,,,,1.61,0.90,1.33,1*04
17:08:16  $GNGSA,A,3,,,,,,,,,,,,,1.61,0.90,1.33,2*0C
17:08:16  $GNGSA,A,3,,,,,,,,,,,,,1.61,0.90,1.33,3*0D
17:08:16  $GNGSA,A,3,19,22,36,,,,,,,,,,1.61,0.90,1.33,4*07
17:08:16  $GPGSV,3,1,11,02,26,260,43,03,32,316,41,10,20,143,43,21,24,241,40,1*64
17:08:16  $GPGSV,3,2,11,25,22,051,33,26,34,158,42,28,66,040,44,31,77,236,47,1*67
17:08:16  $GPGSV,3,3,11,32,39,075,48,44,42,210,43,46,35,225,37,1*56
17:08:16  $GPGSV,2,1,08,03,32,316,36,04,08,281,14,10,20,143,34,25,22,051,28,6*62
17:08:16  $GPGSV,2,2,08,26,34,158,35,28,66,040,43,31,77,236,41,32,39,075,38,6*69
17:08:16  $GPGSV,1,1,01,16,07,177,,0*55
17:08:16  $GLGSV,1,1,04,75,,,48,76,,,49,,,,47,,,,41,1*78
17:08:16  $GLGSV,1,1,03,,,,46,,,,44,,,,40,3*7F
17:08:16  $GAGSV,1,1,03,02,,,43,03,,,45,08,,,46,7*7D
17:08:16  $GBGSV,1,1,04,19,29,112,29,21,,,40,22,76,046,46,36,62,078,48,1*4C
17:08:16  $GBGSV,1,1,02,11,04,308,33,19,29,112,08,3*70
17:08:16  $GNGLL,3741.56080,N,09720.28528,W,170816.00,A,A*6F
17:08:17  $GNRMC,170817.00,A,3741.56079,N,09720.28522,W,0.006,,101124,,,A,V*00
17:08:17  $GNVTG,,T,,M,0.006,N,0.011,K,A*3B
17:08:17  $GNGGA,170817.00,3741.56079,N,09720.28522,W,1,11,0.90,384.4,M,-26.4,M,,*78
17:08:17  $GNGSA,A,3,03,21,25,26,28,31,32,10,,,,,1.61,0.90,1.33,1*04
17:08:17  $GNGSA,A,3,,,,,,,,,,,,,1.61,0.90,1.33,2*0C
17:08:17  $GNGSA,A,3,,,,,,,,,,,,,1.61,0.90,1.33,3*0D
17:08:17  $GNGSA,A,3,19,22,36,,,,,,,,,,1.61,0.90,1.33,4*07
17:08:17  $GPGSV,3,1,11,02,26,260,43,03,32,316,41,10,20,143,43,21,24,241,40,1*64
17:08:17  $GPGSV,3,2,11,25,22,051,33,26,34,158,42,28,66,040,45,31,77,236,47,1*66
17:08:17  $GPGSV,3,3,11,32,39,075,49,44,42,210,43,46,35,225,37,1*57
17:08:17  $GPGSV,2,1,08,03,32,316,36,04,08,281,16,10,20,143,34,25,22,051,28,6*60
17:08:17  $GPGSV,2,2,08,26,34,158,35,28,66,040,43,31,77,236,41,32,39,075,38,6*69
17:08:17  $GPGSV,1,1,01,16,07,177,,0*55
17:08:17  $GLGSV,1,1,04,75,,,48,76,,,49,,,,47,,,,41,1*78
17:08:17  $GLGSV,1,1,03,,,,46,,,,44,,,,40,3*7F
17:08:17  $GAGSV,1,1,03,02,,,43,03,,,45,08,,,46,7*7D
17:08:17  $GBGSV,1,1,04,19,29,112,29,21,,,40,22,76,046,46,36,62,078,48,1*4C
17:08:17  $GBGSV,1,1,02,11,04,308,33,19,29,112,08,3*70
17:08:17  $GNGLL,3741.56079,N,09720.28522,W,170817.00,A,A*62
17:08:18  $GNRMC,170818.00,A,3741.56078,N,09720.28516,W,0.005,,101124,,,A,V*0A
17:08:18  $GNVTG,,T,,M,0.005,N,0.010,K,A*39
17:08:18  $GNGGA,170818.00,3741.56078,N,09720.28516,W,1,11,0.90,384.4,M,-26.4,M,,*71
17:08:18  $GNGSA,A,3,03,21,25,26,28,31,32,10,,,,,1.61,0.90,1.33,1*04
17:08:18  $GNGSA,A,3,,,,,,,,,,,,,1.61,0.90,1.33,2*0C
17:08:18  $GNGSA,A,3,,,,,,,,,,,,,1.61,0.90,1.33,3*0D
17:08:18  $GNGSA,A,3,19,22,36,,,,,,,,,,1.61,0.90,1.33,4*07
17:08:18  $GPGSV,3,1,11,02,26,260,43,03,32,316,41,10,20,143,43,21,24,240,39,1*6B
17:08:18  $GPGSV,3,2,11,25,22,051,33,26,34,158,42,28,66,040,44,31,77,236,47,1*67
17:08:18  $GPGSV,3,3,11,32,39,075,50,44,42,210,43,46,35,225,37,1*5F
17:08:18  $GPGSV,2,1,08,03,32,316,36,04,08,281,16,10,20,143,34,25,22,051,28,6*60
17:08:18  $GPGSV,2,2,08,26,34,158,35,28,66,040,43,31,77,236,41,32,39,075,38,6*69
17:08:18  $GPGSV,1,1,01,16,07,177,,0*55
17:08:18  $GLGSV,1,1,04,75,,,48,76,,,49,,,,41,,,,47,1*78
17:08:18  $GLGSV,1,1,03,,,,40,,,,44,,,,47,3*7E
17:08:18  $GAGSV,1,1,03,02,,,42,03,,,45,08,,,46,7*7C
17:08:18  $GBGSV,1,1,04,19,29,112,28,21,,,40,22,76,046,46,36,62,078,48,1*4D
17:08:18  $GBGSV,1,1,01,11,04,308,33,3*4A
17:08:18  $GNGLL,3741.56078,N,09720.28516,W,170818.00,A,A*6B
17:08:19  $GNRMC,170819.00,A,3741.56077,N,09720.28511,W,0.005,,101124,,,A,V*03
17:08:19  $GNVTG,,T,,M,0.005,N,0.009,K,A*31
17:08:19  $GNGGA,170819.00,3741.56077,N,09720.28511,W,1,11,0.90,384.3,M,-26.4,M,,*7F
17:08:19  $GNGSA,A,3,03,21,25,26,28,31,32,10,,,,,1.61,0.90,1.33,1*04
17:08:19  $GNGSA,A,3,,,,,,,,,,,,,1.61,0.90,1.33,2*0C
17:08:19  $GNGSA,A,3,,,,,,,,,,,,,1.61,0.90,1.33,3*0D
17:08:19  $GNGSA,A,3,19,22,36,,,,,,,,,,1.61,0.90,1.33,4*07
17:08:19  $GPGSV,3,1,11,02,26,260,43,03,32,316,41,10,20,143,43,21,24,240,40,1*65
17:08:19  $GPGSV,3,2,11,25,22,051,33,26,34,158,42,28,66,040,44,31,77,236,47,1*67
17:08:19  $GPGSV,3,3,11,32,39,075,50,44,42,210,43,46,35,225,37,1*5F
17:08:19  $GPGSV,2,1,08,03,32,316,36,04,08,281,17,10,20,143,34,25,22,051,28,6*61
17:08:19  $GPGSV,2,2,08,26,34,158,35,28,66,040,43,31,77,236,41,32,39,075,37,6*66
17:08:19  $GPGSV,1,1,01,16,07,177,,0*55
17:08:19  $GLGSV,1,1,04,75,,,48,76,,,50,,,,42,,,,47,1*73
17:08:19  $GLGSV,1,1,03,,,,40,,,,44,,,,47,3*7E
17:08:19  $GAGSV,1,1,03,02,,,42,03,,,45,08,,,46,7*7C
17:08:19  $GBGSV,1,1,04,19,29,112,28,21,,,40,22,76,046,46,36,62,078,48,1*4D
17:08:19  $GBGSV,1,1,01,11,04,308,32,3*4B
17:08:19  $GNGLL,3741.56077,N,09720.28511,W,170819.00,A,A*62
17:08:20  $GNRMC,170820.00,A,3741.56075,N,09720.28505,W,0.004,,101124,,,A,V*0F
17:08:20  $GNVTG,,T,,M,0.004,N,0.008,K,A*31
17:08:20  $GNGGA,170820.00,3741.56075,N,09720.28505,W,1,11,0.90,384.3,M,-26.4,M,,*72
17:08:20  $GNGSA,A,3,03,21,25,26,28,31,32,10,,,,,1.61,0.90,1.33,1*04
17:08:20  $GNGSA,A,3,,,,,,,,,,,,,1.61,0.90,1.33,2*0C
17:08:20  $GNGSA,A,3,,,,,,,,,,,,,1.61,0.90,1.33,3*0D
17:08:20  $GNGSA,A,3,19,22,36,,,,,,,,,,1.61,0.90,1.33,4*07
17:08:20  $GPGSV,3,1,11,02,26,260,43,03,32,316,41,10,20,143,43,21,24,240,40,1*65
17:08:20  $GPGSV,3,2,11,25,22,051,32,26,34,158,42,28,66,040,44,31,77,236,47,1*66
17:08:20  $GPGSV,3,3,11,32,39,075,50,44,42,210,43,46,35,225,37,1*5F
17:08:20  $GPGSV,2,1,08,03,32,316,36,04,08,281,18,10,20,143,34,25,22,051,27,6*61
17:08:20  $GPGSV,2,2,08,26,34,158,35,28,66,040,44,31,77,236,41,32,39,075,37,6*61
17:08:20  $GPGSV,1,1,01,16,07,177,,0*55
17:08:20  $GLGSV,1,1,04,75,,,48,76,,,49,,,,42,,,,47,1*7B
17:08:20  $GLGSV,1,1,03,,,,40,,,,44,,,,47,3*7E
17:08:20  $GAGSV,1,1,03,02,,,42,03,,,45,08,,,46,7*7C
17:08:20  $GBGSV,1,1,04,19,29,112,27,21,,,40,22,76,046,46,36,62,078,48,1*42
17:08:20  $GBGSV,1,1,01,11,04,308,32,3*4B
17:08:20  $GNGLL,3741.56075,N,09720.28505,W,170820.00,A,A*6F
17:08:21  $GNRMC,170821.00,A,3741.56074,N,09720.28500,W,0.004,,101124,,,A,V*0A
17:08:21  $GNVTG,,T,,M,0.004,N,0.008,K,A*31
17:08:21  $GNGGA,170821.00,3741.56074,N,09720.28500,W,1,11,0.90,384.2,M,-26.4,M,,*76
17:08:21  $GNGSA,A,3,03,21,25,26,28,31,32,10,,,,,1.61,0.90,1.33,1*04
17:08:21  $GNGSA,A,3,,,,,,,,,,,,,1.61,0.90,1.33,2*0C
17:08:21  $GNGSA,A,3,,,,,,,,,,,,,1.61,0.90,1.33,3*0D
17:08:21  $GNGSA,A,3,19,22,36,,,,,,,,,,1.61,0.90,1.33,4*07
17:08:21  $GPGSV,3,1,11,02,26,260,43,03,32,316,41,10,20,143,43,21,24,240,40,1*65
17:08:21  $GPGSV,3,2,11,25,22,051,32,26,34,158,42,28,66,040,44,31,77,236,47,1*66
17:08:21  $GPGSV,3,3,11,32,39,075,50,44,42,210,43,46,35,225,37,1*5F
17:08:21  $GPGSV,2,1,08,03,32,316,36,04,08,281,17,10,20,143,34,25,22,051,27,6*6E
17:08:21  $GPGSV,2,2,08,26,34,158,35,28,66,040,44,31,77,236,41,32,39,075,37,6*61
17:08:21  $GPGSV,1,1,01,16,07,177,,0*55
17:08:21  $GLGSV,1,1,04,75,,,48,76,,,49,,,,42,,,,47,1*7B
17:08:21  $GLGSV,1,1,03,,,,40,,,,44,,,,47,3*7E
17:08:21  $GAGSV,1,1,03,02,,,42,03,,,45,08,,,46,7*7C
17:08:21  $GBGSV,1,1,04,19,29,112,27,21,,,39,22,76,046,46,36,62,078,48,1*4C
17:08:21  $GBGSV,1,1,01,11,04,308,32,3*4B
17:08:21  $GNGLL,3741.56074,N,09720.28500,W,170821.00,A,A*6A
17:08:22  $GNRMC,170822.00,A,3741.56071,N,09720.28494,W,0.004,,101124,,,A,V*00
17:08:22  $GNVTG,,T,,M,0.004,N,0.008,K,A*31
17:08:22  $GNGGA,170822.00,3741.56071,N,09720.28494,W,1,11,0.90,384.3,M,-26.4,M,,*7D
17:08:22  $GNGSA,A,3,03,21,25,26,28,31,32,10,,,,,1.61,0.90,1.33,1*04
17:08:22  $GNGSA,A,3,,,,,,,,,,,,,1.61,0.90,1.33,2*0C
17:08:22  $GNGSA,A,3,,,,,,,,,,,,,1.61,0.90,1.33,3*0D
17:08:22  $GNGSA,A,3,19,22,36,,,,,,,,,,1.61,0.90,1.33,4*07
17:08:22  $GPGSV,3,1,11,02,26,260,43,03,32,316,41,10,20,143,43,21,24,240,40,1*65
17:08:22  $GPGSV,3,2,11,25,22,051,32,26,34,158,42,28,66,040,44,31,77,236,47,1*66
17:08:22  $GPGSV,3,3,11,32,39,075,49,44,42,210,43,46,35,225,37,1*57
17:08:22  $GPGSV,2,1,08,03,32,316,36,04,08,281,17,10,20,143,34,25,22,051,27,6*6E
17:08:22  $GPGSV,2,2,08,26,34,158,35,28,66,040,44,31,77,236,41,32,39,075,37,6*61
17:08:22  $GPGSV,1,1,01,16,07,177,,0*55
17:08:22  $GLGSV,1,1,04,75,,,48,76,,,49,,,,42,,,,47,1*7B
17:08:22  $GLGSV,1,1,03,,,,40,,,,44,,,,47,3*7E
17:08:22  $GAGSV,1,1,03,02,,,42,03,,,45,08,,,46,7*7C
17:08:22  $GBGSV,1,1,04,19,29,112,27,21,,,39,22,76,046,46,36,62,078,48,1*4C
17:08:22  $GBGSV,1,1,01,11,04,308,32,3*4B
17:08:22  $GNGLL,3741.56071,N,09720.28494,W,170822.00,A,A*60
17:08:23  $GNRMC,170823.00,A,3741.56067,N,09720.28488,W,0.004,,101124,,,A,V*0B
17:08:23  $GNVTG,,T,,M,0.004,N,0.008,K,A*31
17:08:23  $GNGGA,170823.00,3741.56067,N,09720.28488,W,1,11,0.90,384.3,M,-26.4,M,,*76
17:08:23  $GNGSA,A,3,03,21,25,26,28,31,32,10,,,,,1.61,0.90,1.33,1*04
17:08:23  $GNGSA,A,3,,,,,,,,,,,,,1.61,0.90,1.33,2*0C
17:08:23  $GNGSA,A,3,,,,,,,,,,,,,1.61,0.90,1.33,3*0D
17:08:23  $GNGSA,A,3,19,22,36,,,,,,,,,,1.61,0.90,1.33,4*07
17:08:23  $GPGSV,3,1,11,02,26,260,43,03,32,316,41,10,20,143,43,21,24,240,40,1*65
17:08:23  $GPGSV,3,2,11,25,22,051,32,26,34,158,42,28,66,040,44,31,77,236,47,1*66
17:08:23  $GPGSV,3,3,11,32,39,075,49,44,42,210,43,46,35,225,37,1*57
17:08:23  $GPGSV,2,1,08,03,32,316,36,04,08,281,17,10,20,143,34,25,22,051,27,6*6E
17:08:23  $GPGSV,2,2,08,26,34,158,34,28,66,040,44,31,77,236,41,32,39,075,37,6*60
17:08:23  $GPGSV,1,1,01,16,07,177,,0*55
17:08:23  $GLGSV,1,1,04,75,,,48,76,,,49,,,,43,,,,47,1*7A
17:08:23  $GLGSV,1,1,03,,,,40,,,,44,,,,47,3*7E
17:08:23  $GAGSV,1,1,03,02,,,42,03,,,45,08,,,46,7*7C
17:08:23  $GBGSV,1,1,04,19,29,112,27,21,,,39,22,76,046,47,36,62,078,48,1*4D
17:08:23  $GBGSV,1,1,01,11,04,308,32,3*4B
17:08:23  $GNGLL,3741.56067,N,09720.28488,W,170823.00,A,A*6B
17:08:24  $GNRMC,170824.00,A,3741.56063,N,09720.28481,W,0.004,,101124,,,A,V*01
17:08:24  $GNVTG,,T,,M,0.004,N,0.008,K,A*31
17:08:24  $GNGGA,170824.00,3741.56063,N,09720.28481,W,1,11,0.90,384.4,M,-26.4,M,,*7B
17:08:24  $GNGSA,A,3,03,21,25,26,28,31,32,10,,,,,1.61,0.90,1.33,1*04
17:08:24  $GNGSA,A,3,,,,,,,,,,,,,1.61,0.90,1.33,2*0C
17:08:24  $GNGSA,A,3,,,,,,,,,,,,,1.61,0.90,1.33,3*0D
17:08:24  $GNGSA,A,3,19,22,36,,,,,,,,,,1.61,0.90,1.33,4*07
17:08:24  $GPGSV,3,1,11,02,26,260,43,03,32,316,41,10,20,143,43,21,24,240,40,1*65
17:08:24  $GPGSV,3,2,11,25,22,051,32,26,34,158,42,28,66,040,44,31,77,236,47,1*66
17:08:24  $GPGSV,3,3,11,32,39,075,48,44,42,210,43,46,35,225,37,1*56
17:08:24  $GPGSV,2,1,08,03,32,316,36,04,08,281,17,10,20,143,34,25,22,051,27,6*6E
17:08:24  $GPGSV,2,2,08,26,34,158,34,28,66,040,44,31,77,236,41,32,39,075,37,6*60
17:08:24  $GPGSV,1,1,01,16,07,177,,0*55
17:08:24  $GLGSV,1,1,04,75,,,48,76,,,49,,,,43,,,,47,1*7A
17:08:24  $GLGSV,1,1,03,,,,41,,,,44,,,,47,3*7F
17:08:24  $GAGSV,1,1,03,02,,,42,03,,,45,08,,,46,7*7C
17:08:24  $GBGSV,1,1,04,19,29,112,26,21,,,39,22,76,046,47,36,62,078,48,1*4C
17:08:24  $GBGSV,1,1,01,11,04,308,32,3*4B
17:08:24  $GNGLL,3741.56063,N,09720.28481,W,170824.00,A,A*61
17:08:25  $GNRMC,170825.00,A,3741.56060,N,09720.28476,W,0.004,,101124,,,A,V*0B
17:08:25  $GNVTG,,T,,M,0.004,N,0.008,K,A*31
17:08:25  $GNGGA,170825.00,3741.56060,N,09720.28476,W,1,11,0.90,384.4,M,-26.4,M,,*71
17:08:25  $GNGSA,A,3,03,21,25,26,28,31,32,10,,,,,1.61,0.90,1.33,1*04
17:08:25  $GNGSA,A,3,,,,,,,,,,,,,1.61,0.90,1.33,2*0C
17:08:25  $GNGSA,A,3,,,,,,,,,,,,,1.61,0.90,1.33,3*0D
17:08:25  $GNGSA,A,3,19,22,36,,,,,,,,,,1.61,0.90,1.33,4*07
17:08:25  $GPGSV,3,1,11,02,26,260,43,03,32,316,41,10,20,143,43,21,24,240,40,1*65
17:08:25  $GPGSV,3,2,11,25,22,051,33,26,34,158,42,28,66,040,44,31,77,236,47,1*67
17:08:25  $GPGSV,3,3,11,32,39,075,48,44,42,210,43,46,35,225,37,1*56
17:08:25  $GPGSV,2,1,08,03,32,316,36,04,08,281,17,10,20,143,33,25,22,051,26,6*68
17:08:25  $GPGSV,2,2,08,26,34,158,34,28,66,040,44,31,77,236,41,32,39,075,37,6*60
17:08:25  $GPGSV,1,1,01,16,07,177,,0*55
17:08:25  $GLGSV,1,1,04,75,,,48,76,,,48,,,,43,,,,47,1*7B
17:08:25  $GLGSV,1,1,03,,,,41,,,,44,,,,47,3*7F
17:08:25  $GAGSV,1,1,03,02,,,42,03,,,45,08,,,46,7*7C
17:08:25  $GBGSV,1,1,04,19,29,112,27,21,,,39,22,76,046,47,36,62,078,48,1*4D
17:08:25  $GBGSV,1,1,01,11,04,308,32,3*4B
17:08:25  $GNGLL,3741.56060,N,09720.28476,W,170825.00,A,A*6B
17:08:26  $GNRMC,170826.00,A,3741.56056,N,09720.28470,W,0.004,,101124,,,A,V*0B
17:08:26  $GNVTG,,T,,M,0.004,N,0.008,K,A*31
17:08:26  $GNGGA,170826.00,3741.56056,N,09720.28470,W,1,11,0.90,384.5,M,-26.4,M,,*70
17:08:26  $GNGSA,A,3,03,21,25,26,28,31,32,10,,,,,1.61,0.90,1.33,1*04
17:08:26  $GNGSA,A,3,,,,,,,,,,,,,1.61,0.90,1.33,2*0C
17:08:26  $GNGSA,A,3,,,,,,,,,,,,,1.61,0.90,1.33,3*0D
17:08:26  $GNGSA,A,3,19,22,36,,,,,,,,,,1.61,0.90,1.33,4*07
17:08:26  $GPGSV,3,1,12,02,26,260,43,03,32,316,41,10,20,143,43,16,07,177,21,1*63
17:08:26  $GPGSV,3,2,12,21,24,240,40,25,22,051,32,26,34,158,42,28,66,040,44,1*64
17:08:26  $GPGSV,3,3,12,31,77,236,47,32,39,075,46,44,42,210,43,46,35,225,37,1*6D
17:08:26  $GPGSV,2,1,08,03,32,316,36,04,08,281,16,10,20,143,34,25,22,051,26,6*6E
17:08:26  $GPGSV,2,2,08,26,34,158,35,28,66,040,44,31,77,236,41,32,39,075,37,6*61
17:08:26  $GLGSV,1,1,04,75,,,48,76,,,48,,,,47,,,,43,1*7B
17:08:26  $GLGSV,1,1,03,,,,47,,,,43,,,,41,3*78
17:08:26  $GAGSV,1,1,03,02,,,42,03,,,45,08,,,46,7*7C
17:08:26  $GBGSV,1,1,04,19,29,112,27,21,,,39,22,76,046,47,36,62,078,48,1*4D
17:08:26  $GBGSV,1,1,02,11,04,308,32,36,62,078,20,3*74
17:08:26  $GNGLL,3741.56056,N,09720.28470,W,170826.00,A,A*6B
17:08:27  $GNRMC,170827.00,A,3741.56054,N,09720.28464,W,0.004,,101124,,,A,V*0D
17:08:27  $GNVTG,,T,,M,0.004,N,0.008,K,A*31
17:08:27  $GNGGA,170827.00,3741.56054,N,09720.28464,W,1,11,0.90,384.5,M,-26.4,M,,*76
17:08:27  $GNGSA,A,3,03,21,25,26,28,31,32,10,,,,,1.61,0.90,1.33,1*04
17:08:27  $GNGSA,A,3,,,,,,,,,,,,,1.61,0.90,1.33,2*0C
17:08:27  $GNGSA,A,3,,,,,,,,,,,,,1.61,0.90,1.33,3*0D
17:08:27  $GNGSA,A,3,19,22,36,,,,,,,,,,1.61,0.90,1.33,4*07
17:08:27  $GPGSV,3,1,12,02,26,260,43,03,32,316,42,10,20,143,43,16,07,177,22,1*63
17:08:27  $GPGSV,3,2,12,21,24,240,40,25,22,051,32,26,34,158,42,28,66,040,44,1*64
17:08:27  $GPGSV,3,3,12,31,77,236,47,32,39,075,46,44,42,210,43,46,35,225,37,1*6D
17:08:27  $GPGSV,2,1,08,03,32,316,36,04,08,281,16,10,20,143,34,25,22,051,25,6*6D
17:08:27  $GPGSV,2,2,08,26,34,158,34,28,66,040,44,31,77,236,41,32,39,075,37,6*60
17:08:27  $GLGSV,1,1,04,75,,,48,76,,,48,,,,47,,,,43,1*7B
17:08:27  $GLGSV,1,1,03,,,,47,,,,43,,,,41,3*78
17:08:27  $GAGSV,1,1,03,02,,,42,03,,,45,08,,,46,7*7C
17:08:27  $GBGSV,1,1,04,19,29,112,28,21,,,39,22,76,046,47,36,62,078,47,1*4D
17:08:27  $GBGSV,1,1,02,11,04,308,31,36,62,078,16,3*72
17:08:27  $GNGLL,3741.56054,N,09720.28464,W,170827.00,A,A*6D
17:08:28  $GNRMC,170828.00,A,3741.56051,N,09720.28459,W,0.005,,101124,,,A,V*08
17:08:28  $GNVTG,,T,,M,0.005,N,0.008,K,A*30
17:08:28  $GNGGA,170828.00,3741.56051,N,09720.28459,W,1,11,0.90,384.6,M,-26.4,M,,*71
17:08:28  $GNGSA,A,3,03,21,25,26,28,31,32,10,,,,,1.61,0.90,1.33,1*04
17:08:28  $GNGSA,A,3,,,,,,,,,,,,,1.61,0.90,1.33,2*0C
17:08:28  $GNGSA,A,3,,,,,,,,,,,,,1.61,0.90,1.33,3*0D
17:08:28  $GNGSA,A,3,19,22,36,,,,,,,,,,1.61,0.90,1.33,4*07
17:08:28  $GPGSV,3,1,12,02,26,260,43,03,32,316,42,10,20,143,43,16,07,177,22,1*63
17:08:28  $GPGSV,3,2,12,21,24,240,41,25,22,051,32,26,34,158,42,28,66,040,44,1*65
17:08:28  $GPGSV,3,3,12,31,77,236,47,32,39,075,46,44,42,210,43,46,35,225,37,1*6D
17:08:28  $GPGSV,2,1,08,03,32,316,36,04,08,281,16,10,20,143,33,25,22,051,25,6*6A
17:08:28  $GPGSV,2,2,08,26,34,158,35,28,66,040,44,31,77,236,41,32,39,075,37,6*61
17:08:28  $GLGSV,1,1,04,75,,,48,76,,,47,,,,47,,,,42,1*75
17:08:28  $GLGSV,1,1,03,,,,47,,,,43,,,,40,3*79
17:08:28  $GAGSV,1,1,03,02,,,42,03,,,45,08,,,46,7*7C
17:08:28  $GBGSV,1,1,04,19,29,112,29,21,,,39,22,76,046,47,36,62,078,47,1*4C
17:08:28  $GBGSV,1,1,02,11,04,308,32,36,62,078,13,3*74
17:08:28  $GNGLL,3741.56051,N,09720.28459,W,170828.00,A,A*69
17:08:29  $GNRMC,170829.00,A,3741.56049,N,09720.28454,W,0.004,,101124,,,A,V*0C
17:08:29  $GNVTG,,T,,M,0.004,N,0.008,K,A*31
17:08:29  $GNGGA,170829.00,3741.56049,N,09720.28454,W,1,11,0.90,384.7,M,-26.4,M,,*75
17:08:29  $GNGSA,A,3,03,21,25,26,28,31,32,10,,,,,1.61,0.90,1.33,1*04
17:08:29  $GNGSA,A,3,,,,,,,,,,,,,1.61,0.90,1.33,2*0C
17:08:29  $GNGSA,A,3,,,,,,,,,,,,,1.61,0.90,1.33,3*0D
17:08:29  $GNGSA,A,3,19,22,36,,,,,,,,,,1.61,0.90,1.33,4*07
17:08:29  $GPGSV,3,1,12,02,26,260,43,03,32,316,42,10,20,143,43,16,07,177,22,1*63
17:08:29  $GPGSV,3,2,12,21,24,240,41,25,22,051,31,26,34,158,42,28,66,040,44,1*66
17:08:29  $GPGSV,3,3,12,31,77,236,47,32,39,075,45,44,42,210,43,46,35,225,37,1*6E
17:08:29  $GPGSV,2,1,08,03,32,316,36,04,08,281,15,10,20,143,33,25,22,051,24,6*68
17:08:29  $GPGSV,2,2,08,26,34,158,35,28,66,040,44,31,77,236,41,32,39,075,37,6*61
17:08:29  $GLGSV,1,1,04,75,,,48,76,,,47,,,,47,,,,42,1*75
17:08:29  $GLGSV,1,1,03,,,,47,,,,42,,,,41,3*79
17:08:29  $GAGSV,1,1,03,02,,,42,03,,,45,08,,,46,7*7C
17:08:29  $GBGSV,1,1,04,19,29,112,30,21,,,39,22,76,046,47,36,62,078,47,1*44
17:08:29  $GBGSV,1,1,02,11,04,308,32,36,62,078,10,3*77
17:08:29  $GNGLL,3741.56049,N,09720.28454,W,170829.00,A,A*6C
17:08:30  $GNRMC,170830.00,A,3741.56047,N,09720.28449,W,0.005,,101124,,,A,V*07
17:08:30  $GNVTG,,T,,M,0.005,N,0.009,K,A*31
17:08:30  $GNGGA,170830.00,3741.56047,N,09720.28449,W,1,11,0.90,384.7,M,-26.4,M,,*7F
17:08:30  $GNGSA,A,3,03,21,25,26,28,31,32,10,,,,,1.61,0.90,1.33,1*04
17:08:30  $GNGSA,A,3,,,,,,,,,,,,,1.61,0.90,1.33,2*0C
17:08:30  $GNGSA,A,3,,,,,,,,,,,,,1.61,0.90,1.33,3*0D
17:08:30  $GNGSA,A,3,19,22,36,,,,,,,,,,1.61,0.90,1.33,4*07
17:08:30  $GPGSV,3,1,12,02,26,260,43,03,32,316,42,10,20,143,43,16,07,177,23,1*62
17:08:30  $GPGSV,3,2,12,21,24,240,40,25,22,051,31,26,34,158,42,28,66,040,45,1*66
17:08:30  $GPGSV,3,3,12,31,77,236,47,32,39,075,45,44,42,210,43,46,35,225,37,1*6E
17:08:30  $GPGSV,2,1,08,03,32,316,36,04,08,281,15,10,20,143,34,25,22,051,23,6*68
17:08:30  $GPGSV,2,2,08,26,34,158,35,28,66,040,44,31,77,236,41,32,39,075,37,6*61
17:08:30  $GLGSV,1,1,04,75,,,48,76,,,47,,,,47,,,,42,1*75
17:08:30  $GLGSV,1,1,03,,,,46,,,,41,,,,40,3*7A
17:08:30  $GAGSV,1,1,03,02,,,41,03,,,45,08,,,46,7*7F
17:08:30  $GBGSV,1,1,04,19,29,112,30,21,,,39,22,76,046,47,36,62,078,48,1*4B
17:08:30  $GBGSV,1,1,02,11,04,308,32,36,62,078,08,3*7E
17:08:30  $GNGLL,3741.56047,N,09720.28449,W,170830.00,A,A*66
17:08:31  $GNRMC,170831.00,A,3741.56045,N,09720.28444,W,0.004,,101124,,,A,V*08
17:08:31  $GNVTG,,T,,M,0.004,N,0.007,K,A*3E
17:08:31  $GNGGA,170831.00,3741.56045,N,09720.28444,W,1,12,0.84,384.8,M,-26.4,M,,*78
17:08:31  $GNGSA,A,3,02,03,21,25,26,28,31,32,10,,,,1.55,0.84,1.30,1*07
17:08:31  $GNGSA,A,3,,,,,,,,,,,,,1.55,0.84,1.30,2*0D
17:08:31  $GNGSA,A,3,,,,,,,,,,,,,1.55,0.84,1.30,3*0C
17:08:31  $GNGSA,A,3,19,22,36,,,,,,,,,,1.55,0.84,1.30,4*06
17:08:31  $GPGSV,3,1,12,02,26,260,43,03,32,316,42,10,20,143,43,16,07,177,24,1*65
17:08:31  $GPGSV,3,2,12,21,24,240,41,25,22,051,31,26,34,158,42,28,66,040,45,1*67
17:08:31  $GPGSV,3,3,12,31,77,236,47,32,39,075,45,44,42,210,43,46,35,225,37,1*6E
17:08:31  $GPGSV,2,1,08,03,32,316,36,04,08,281,15,10,20,143,34,25,22,051,22,6*69
17:08:31  $GPGSV,2,2,08,26,34,158,35,28,66,040,44,31,77,236,41,32,39,075,38,6*6E
17:08:31  $GLGSV,1,1,04,75,,,48,76,,,47,,,,42,,,,47,1*75
17:08:31  $GLGSV,1,1,03,,,,40,,,,46,,,,41,3*7A
17:08:31  $GAGSV,1,1,03,02,,,41,03,,,45,08,,,46,7*7F
17:08:31  $GBGSV,2,1,05,11,04,308,28,19,29,112,30,21,,,39,22,76,046,47,1*4E
17:08:31  $GBGSV,2,2,05,36,62,078,48,1*41
17:08:31  $GBGSV,1,1,02,11,04,308,33,36,62,078,09,3*7E
17:08:31  $GNGLL,3741.56045,N,09720.28444,W,170831.00,A,A*68
17:08:32  $GNRMC,170832.00,A,3741.56043,N,09720.28437,W,0.003,,101124,,,A,V*0E
17:08:32  $GNVTG,,T,,M,0.003,N,0.006,K,A*38
17:08:32  $GNGGA,170832.00,3741.56043,N,09720.28437,W,1,12,0.84,384.9,M,-26.4,M,,*78
17:08:32  $GNGSA,A,3,02,03,21,25,26,28,31,32,10,,,,1.55,0.84,1.30,1*07
17:08:32  $GNGSA,A,3,,,,,,,,,,,,,1.55,0.84,1.30,2*0D
17:08:32  $GNGSA,A,3,,,,,,,,,,,,,1.55,0.84,1.30,3*0C
17:08:32  $GNGSA,A,3,19,22,36,,,,,,,,,,1.55,0.84,1.30,4*06
17:08:32  $GPGSV,3,1,12,02,26,260,43,03,32,316,42,10,20,143,44,16,07,177,25,1*63
17:08:32  $GPGSV,3,2,12,21,24,240,41,25,22,051,31,26,34,158,42,28,66,040,45,1*67
17:08:32  $GPGSV,3,3,12,31,77,236,48,32,39,075,46,44,42,210,43,46,35,225,37,1*62
17:08:32  $GPGSV,2,1,08,03,32,316,36,04,08,281,14,10,20,143,34,25,22,051,21,6*6B
17:08:32  $GPGSV,2,2,08,26,34,158,35,28,66,040,44,31,77,236,41,32,39,075,38,6*6E
17:08:32  $GLGSV,2,1,05,75,,,48,76,,,47,,,,38,,,,42,1*7F
17:08:32  $GLGSV,2,2,05,,,,47,1*7E
17:08:32  $GLGSV,1,1,03,,,,40,,,,46,,,,41,3*7A
17:08:32  $GAGSV,1,1,03,02,,,41,03,,,45,08,,,46,7*7F
17:08:32  $GBGSV,2,1,05,11,04,308,28,19,29,112,29,21,,,39,22,76,046,47,1*46
17:08:32  $GBGSV,2,2,05,36,62,078,47,1*4E
17:08:32  $GBGSV,1,1,02,11,04,308,32,36,62,078,08,3*7E
17:08:32  $GNGLL,3741.56043,N,09720.28437,W,170832.00,A,A*69
17:08:33  $GNRMC,170833.00,A,3741.56041,N,09720.28430,W,0.003,,101124,,,A,V*0A
17:08:33  $GNVTG,,T,,M,0.003,N,0.005,K,A*3B
17:08:33  $GNGGA,170833.00,3741.56041,N,09720.28430,W,1,12,0.84,385.0,M,-26.4,M,,*74
17:08:33  $GNGSA,A,3,02,03,21,25,26,28,31,32,10,,,,1.55,0.84,1.30,1*07
17:08:33  $GNGSA,A,3,,,,,,,,,,,,,1.55,0.84,1.30,2*0D
17:08:33  $GNGSA,A,3,,,,,,,,,,,,,1.55,0.84,1.30,3*0C
17:08:33  $GNGSA,A,3,19,22,36,,,,,,,,,,1.55,0.84,1.30,4*06
17:08:33  $GPGSV,3,1,12,02,26,260,43,03,32,316,42,10,20,143,44,16,07,177,26,1*60
17:08:33  $GPGSV,3,2,12,21,24,240,40,25,22,051,31,26,34,158,42,28,66,040,45,1*66
17:08:33  $GPGSV,3,3,12,31,77,236,48,32,39,075,47,44,42,210,43,46,35,225,37,1*63
17:08:33  $GPGSV,2,1,08,03,32,316,36,04,08,281,13,10,20,143,34,25,22,051,21,6*6C
17:08:33  $GPGSV,2,2,08,26,34,158,35,28,66,040,43,31,77,236,41,32,39,075,38,6*69
17:08:33  $GLGSV,2,1,05,75,,,48,76,,,47,,,,38,,,,42,1*7F
17:08:33  $GLGSV,2,2,05,,,,47,1*7E
17:08:33  $GLGSV,1,1,03,,,,40,,,,46,,,,40,3*7B
17:08:33  $GAGSV,1,1,03,02,,,41,03,,,45,08,,,46,7*7F
17:08:33  $GBGSV,2,1,05,11,04,308,28,19,29,112,29,21,,,39,22,76,046,47,1*46
17:08:33  $GBGSV,2,2,05,36,62,078,47,1*4E
17:08:33  $GBGSV,1,1,02,11,04,308,31,36,62,078,07,3*72
17:08:33  $GNGLL,3741.56041,N,09720.28430,W,170833.00,A,A*6D
17:08:34  $GNRMC,170834.00,A,3741.56040,N,09720.28423,W,0.002,,101124,,,A,V*0F
17:08:34  $GNVTG,,T,,M,0.002,N,0.004,K,A*3B
17:08:34  $GNGGA,170834.00,3741.56040,N,09720.28423,W,1,12,0.84,385.1,M,-26.4,M,,*71
17:08:34  $GNGSA,A,3,02,03,21,25,26,28,31,32,10,,,,1.55,0.84,1.30,1*07
17:08:34  $GNGSA,A,3,,,,,,,,,,,,,1.55,0.84,1.30,2*0D
17:08:34  $GNGSA,A,3,,,,,,,,,,,,,1.55,0.84,1.30,3*0C
17:08:34  $GNGSA,A,3,19,22,36,,,,,,,,,,1.55,0.84,1.30,4*06
17:08:34  $GPGSV,3,1,12,02,26,260,43,03,32,316,42,10,20,143,44,16,07,177,25,1*63
17:08:34  $GPGSV,3,2,12,21,24,240,41,25,22,051,30,26,34,158,42,28,66,040,45,1*66
17:08:34  $GPGSV,3,3,12,31,77,236,47,32,39,075,47,44,42,210,43,46,35,225,37,1*6C
17:08:34  $GPGSV,2,1,08,03,32,316,37,04,08,281,12,10,20,143,34,25,22,051,21,6*6C
17:08:34  $GPGSV,2,2,08,26,34,158,35,28,66,040,43,31,77,236,41,32,39,075,38,6*69
17:08:34  $GLGSV,2,1,05,75,,,48,76,,,48,,,,38,,,,42,1*70
17:08:34  $GLGSV,2,2,05,,,,47,1*7E
17:08:34  $GLGSV,1,1,03,,,,40,,,,46,,,,40,3*7B
17:08:34  $GAGSV,1,1,03,02,,,42,03,,,45,08,,,46,7*7C
17:08:34  $GBGSV,2,1,05,11,04,308,28,19,29,112,30,21,,,39,22,76,046,47,1*4E
17:08:34  $GBGSV,2,2,05,36,62,078,47,1*4E
17:08:34  $GBGSV,1,1,02,11,04,308,31,36,62,078,07,3*72
17:08:34  $GNGLL,3741.56040,N,09720.28423,W,170834.00,A,A*69
17:08:35  $GNRMC,170835.00,A,3741.56039,N,09720.28417,W,0.002,,101124,,,A,V*07
17:08:35  $GNVTG,,T,,M,0.002,N,0.004,K,A*3B
17:08:35  $GNGGA,170835.00,3741.56039,N,09720.28417,W,1,12,0.84,385.1,M,-26.4,M,,*79
17:08:35  $GNGSA,A,3,02,03,21,25,26,28,31,32,10,,,,1.55,0.84,1.30,1*07
17:08:35  $GNGSA,A,3,,,,,,,,,,,,,1.55,0.84,1.30,2*0D
17:08:35  $GNGSA,A,3,,,,,,,,,,,,,1.55,0.84,1.30,3*0C
17:08:35  $GNGSA,A,3,19,22,36,,,,,,,,,,1.55,0.84,1.30,4*06
17:08:35  $GPGSV,3,1,12,02,26,260,43,03,32,316,42,10,20,143,44,16,07,177,25,1*63
17:08:35  $GPGSV,3,2,12,21,24,240,40,25,22,051,30,26,34,158,42,28,66,040,45,1*67
17:08:35  $GPGSV,3,3,12,31,77,236,47,32,39,075,48,44,42,210,43,46,35,225,37,1*63
17:08:35  $GPGSV,2,1,08,03,32,316,37,04,08,281,12,10,20,143,34,25,22,051,20,6*6D
17:08:35  $GPGSV,2,2,08,26,34,158,35,28,66,040,43,31,77,236,41,32,39,075,38,6*69
17:08:35  $GLGSV,2,1,05,75,,,48,76,,,49,,,,37,,,,47,1*7B
17:08:35  $GLGSV,2,2,05,,,,42,1*7B
17:08:35  $GLGSV,1,1,04,,,,36,,,,40,,,,46,,,,40,3*79
17:08:35  $GAGSV,1,1,03,02,,,42,03,,,45,08,,,46,7*7C
17:08:35  $GBGSV,2,1,05,11,04,308,28,19,29,112,29,21,,,39,22,76,046,47,1*46
17:08:35  $GBGSV,2,2,05,36,62,078,47,1*4E
17:08:35  $GBGSV,1,1,02,11,04,308,31,36,62,078,07,3*72
17:08:35  $GNGLL,3741.56039,N,09720.28417,W,170835.00,A,A*61
17:08:36  $GNRMC,170836.00,A,3741.56037,N,09720.28411,W,0.001,,101124,,,A,V*0F
17:08:36  $GNVTG,,T,,M,0.001,N,0.002,K,A*3E
17:08:36  $GNGGA,170836.00,3741.56037,N,09720.28411,W,1,12,0.80,385.2,M,-26.4,M,,*75
17:08:36  $GNGSA,A,3,02,03,21,25,26,28,31,32,10,,,,1.52,0.80,1.30,1*04
17:08:36  $GNGSA,A,3,,,,,,,,,,,,,1.52,0.80,1.30,2*0E
17:08:36  $GNGSA,A,3,02,,,,,,,,,,,,1.52,0.80,1.30,3*0D
17:08:36  $GNGSA,A,3,19,22,36,,,,,,,,,,1.52,0.80,1.30,4*05
17:08:36  $GPGSV,3,1,12,02,26,260,43,03,32,316,43,10,20,143,44,16,07,177,25,1*62
17:08:36  $GPGSV,3,2,12,21,24,240,40,25,22,051,29,26,34,158,42,28,66,040,45,1*6F
17:08:36  $GPGSV,3,3,12,31,77,236,47,32,39,075,48,44,42,210,43,46,35,225,37,1*63
17:08:36  $GPGSV,2,1,08,03,32,316,37,04,08,281,13,10,20,143,34,25,22,051,19,6*66
17:08:36  $GPGSV,2,2,08,26,34,158,35,28,66,040,43,31,77,236,41,32,39,075,38,6*69
17:08:36  $GLGSV,2,1,05,75,,,48,76,,,49,,,,37,,,,47,1*7B
17:08:36  $GLGSV,2,2,05,,,,42,1*7B
17:08:36  $GLGSV,1,1,04,,,,39,,,,40,,,,46,,,,39,3*78
17:08:36  $GAGSV,1,1,03,02,,,41,03,,,45,08,,,45,7*7C
17:08:36  $GBGSV,2,1,05,11,04,308,28,19,29,112,30,21,,,39,22,76,046,47,1*4E
17:08:36  $GBGSV,2,2,05,36,62,078,47,1*4E
17:08:36  $GBGSV,1,1,02,11,04,308,31,36,62,078,07,3*72
17:08:36  $GNGLL,3741.56037,N,09720.28411,W,170836.00,A,A*6A
17:08:37  $GNRMC,170837.00,A,3741.56029,N,09720.28406,W,0.022,,101124,,,A,V*06
17:08:37  $GNVTG,,T,,M,0.022,N,0.041,K,A*38
17:08:37  $GNGGA,170837.00,3741.56029,N,09720.28406,W,1,12,0.76,385.4,M,-26.4,M,,*72
17:08:37  $GNGSA,A,3,02,03,21,25,26,28,31,32,10,,,,1.45,0.76,1.24,1*0E
17:08:37  $GNGSA,A,3,76,75,,,,,,,,,,,1.45,0.76,1.24,2*07
17:08:37  $GNGSA,A,3,02,,,,,,,,,,,,1.45,0.76,1.24,3*07
17:08:37  $GNGSA,A,3,19,22,36,,,,,,,,,,1.45,0.76,1.24,4*0F
17:08:37  $GPGSV,3,1,12,02,26,260,43,03,32,316,42,10,20,143,44,16,07,177,25,1*63
17:08:37  $GPGSV,3,2,12,21,24,240,40,25,22,051,29,26,34,158,42,28,66,040,45,1*6F
17:08:37  $GPGSV,3,3,12,31,77,236,47,32,39,075,48,44,42,210,43,46,35,225,37,1*63
17:08:37  $GPGSV,2,1,08,03,32,316,37,04,08,281,14,10,20,143,33,25,22,051,18,6*67
17:08:37  $GPGSV,2,2,08,26,34,158,35,28,66,040,43,31,77,236,41,32,39,075,38,6*69
17:08:37  $GLGSV,2,1,05,75,,,48,76,,,49,,,,42,,,,47,1*79
17:08:37  $GLGSV,2,2,05,,,,36,1*78
17:08:37  $GLGSV,1,1,04,,,,40,,,,39,,,,46,,,,39,3*78
17:08:37  $GAGSV,1,1,01,02,29,152,44,2*48
17:08:37  $GAGSV,1,1,04,02,29,152,42,03,,,45,08,,,45,25,,,42,7*44
17:08:37  $GBGSV,2,1,05,11,04,308,28,19,29,112,30,21,,,39,22,76,046,47,1*4E
17:08:37  $GBGSV,2,2,05,36,62,078,47,1*4E
17:08:37  $GBGSV,1,1,01,11,04,308,31,3*48
17:08:37  $GNGLL,3741.56029,N,09720.28406,W,170837.00,A,A*62
17:08:38  $GNRMC,170838.00,A,3741.56031,N,09720.28400,W,0.020,,101124,,,A,V*04
17:08:38  $GNVTG,,T,,M,0.020,N,0.036,K,A*3A
17:08:38  $GNGGA,170838.00,3741.56031,N,09720.28400,W,1,12,0.76,385.5,M,-26.4,M,,*73
17:08:38  $GNGSA,A,3,02,03,21,25,26,28,31,32,10,,,,1.45,0.76,1.24,1*0E
17:08:38  $GNGSA,A,3,76,75,,,,,,,,,,,1.45,0.76,1.24,2*07
17:08:38  $GNGSA,A,3,02,,,,,,,,,,,,1.45,0.76,1.24,3*07
17:08:38  $GNGSA,A,3,19,22,36,,,,,,,,,,1.45,0.76,1.24,4*0F
17:08:38  $GPGSV,3,1,12,02,26,260,43,03,32,316,42,10,20,143,44,16,07,177,25,1*63
17:08:38  $GPGSV,3,2,12,21,24,240,40,25,22,051,29,26,34,158,42,28,66,040,45,1*6F
17:08:38  $GPGSV,3,3,12,31,77,236,47,32,39,075,48,44,42,210,43,46,35,225,37,1*63
17:08:38  $GPGSV,2,1,08,03,32,316,37,04,08,281,15,10,20,143,33,25,22,051,19,6*67
17:08:38  $GPGSV,2,2,08,26,34,158,35,28,66,040,43,31,77,236,41,32,39,075,38,6*69
17:08:38  $GLGSV,2,1,05,75,62,069,48,76,39,178,50,,,,42,,,,35,1*7B
17:08:38  $GLGSV,2,2,05,,,,47,1*7E
17:08:38  $GLGSV,1,1,04,75,62,069,46,76,39,178,40,,,,39,,,,40,3*7A
17:08:38  $GAGSV,1,1,01,02,29,152,44,2*48
17:08:38  $GAGSV,1,1,04,02,29,152,42,03,,,45,08,,,46,25,,,42,7*47
17:08:38  $GBGSV,2,1,05,11,04,308,28,19,29,112,29,21,,,39,22,76,046,47,1*46
17:08:38  $GBGSV,2,2,05,36,62,078,47,1*4E
17:08:38  $GBGSV,1,1,01,11,04,308,31,3*48
17:08:38  $GNGLL,3741.56031,N,09720.28400,W,170838.00,A,A*62
17:08:39  $GNRMC,170839.00,A,3741.56035,N,09720.28397,W,0.003,,101124,,,A,V*09
17:08:39  $GNVTG,,T,,M,0.003,N,0.005,K,A*3B
17:08:39  $GNGGA,170839.00,3741.56035,N,09720.28397,W,1,12,0.70,385.6,M,-26.4,M,,*7A
17:08:39  $GNGSA,A,3,02,03,21,25,26,28,31,32,10,,,,1.37,0.70,1.17,1*0D
17:08:39  $GNGSA,A,3,65,66,76,75,,,,,,,,,1.37,0.70,1.17,2*07
17:08:39  $GNGSA,A,3,02,,,,,,,,,,,,1.37,0.70,1.17,3*04
17:08:39  $GNGSA,A,3,19,22,36,,,,,,,,,,1.37,0.70,1.17,4*0C
17:08:39  $GPGSV,3,1,12,02,26,260,43,03,32,316,42,10,20,143,44,16,07,177,25,1*63
17:08:39  $GPGSV,3,2,12,21,24,240,40,25,22,051,29,26,34,158,42,28,66,040,45,1*6F
17:08:39  $GPGSV,3,3,12,31,77,236,47,32,39,075,48,44,42,210,43,46,35,225,37,1*63
17:08:39  $GPGSV,2,1,08,03,32,316,37,04,08,281,15,10,20,143,34,25,22,051,18,6*61
17:08:39  $GPGSV,2,2,08,26,34,158,36,28,66,040,43,31,77,236,41,32,39,075,38,6*6A
17:08:39  $GLGSV,2,1,05,65,,,46,66,,,42,72,,,34,75,62,069,48,1*4E
17:08:39  $GLGSV,2,2,05,76,39,178,50,1*4D
17:08:39  $GLGSV,1,1,04,66,,,40,75,62,069,46,76,39,178,40,,,,39,3*7A
17:08:39  $GAGSV,1,1,01,02,29,152,44,2*48
17:08:39  $GAGSV,1,1,04,02,29,152,42,03,,,45,08,,,46,25,,,42,7*47
17:08:39  $GBGSV,2,1,05,11,04,308,28,19,29,112,30,21,,,39,22,76,046,47,1*4E
17:08:39  $GBGSV,2,2,05,36,62,078,47,1*4E
17:08:39  $GBGSV,1,1,01,11,04,308,31,3*48
17:08:39  $GNGLL,3741.56035,N,09720.28397,W,170839.00,A,A*6E
17:08:40  $GNRMC,170840.00,A,3741.56035,N,09720.28392,W,0.008,,101124,,,A,V*09
17:08:40  $GNVTG,,T,,M,0.008,N,0.014,K,A*30
17:08:40  $GNGGA,170840.00,3741.56035,N,09720.28392,W,1,12,0.68,385.8,M,-26.4,M,,*76
17:08:40  $GNGSA,A,3,02,03,21,25,26,28,31,32,10,,,,1.33,0.68,1.15,1*02
17:08:40  $GNGSA,A,3,65,66,76,75,,,,,,,,,1.33,0.68,1.15,2*08
17:08:40  $GNGSA,A,3,02,03,08,,,,,,,,,,1.33,0.68,1.15,3*00
17:08:40  $GNGSA,A,3,19,22,36,,,,,,,,,,1.33,0.68,1.15,4*03
17:08:40  $GPGSV,3,1,12,02,26,260,43,03,32,316,42,10,20,143,44,16,07,177,24,1*62
17:08:40  $GPGSV,3,2,12,21,24,240,40,25,22,051,30,26,34,158,42,28,66,040,45,1*67
17:08:40  $GPGSV,3,3,12,31,77,236,47,32,39,075,48,44,42,210,43,46,35,225,38,1*6C
17:08:40  $GPGSV,2,1,08,03,32,316,37,04,08,281,16,10,20,143,34,25,22,051,17,6*6D
17:08:40  $GPGSV,2,2,08,26,34,158,36,28,66,040,43,31,77,236,41,32,39,075,37,6*65
17:08:40  $GLGSV,2,1,05,65,62,024,46,66,29,318,42,72,,,33,75,62,069,48,1*4A
17:08:40  $GLGSV,2,2,05,76,39,178,50,1*4D
17:08:40  $GLGSV,1,1,04,65,62,024,39,66,29,318,40,75,62,069,46,76,39,178,41,3*7B
17:08:40  $GAGSV,1,1,01,02,29,152,44,2*48
17:08:40  $GAGSV,1,1,04,02,29,152,42,03,,,45,08,,,46,25,,,42,7*47
17:08:40  $GBGSV,2,1,05,11,04,308,28,19,29,112,30,21,,,39,22,76,046,47,1*4E
17:08:40  $GBGSV,2,2,05,36,62,078,47,1*4E
17:08:40  $GBGSV,1,1,01,11,04,308,31,3*48
17:08:40  $GNGLL,3741.56035,N,09720.28392,W,170840.00,A,A*65
17:08:41  $GNRMC,170841.00,A,3741.56029,N,09720.28383,W,0.007,,101124,,,A,V*0A
17:08:41  $GNVTG,,T,,M,0.007,N,0.013,K,A*38
17:08:41  $GNGGA,170841.00,3741.56029,N,09720.28383,W,1,12,0.68,386.0,M,-26.4,M,,*71
17:08:41  $GNGSA,A,3,02,03,21,25,26,28,31,32,10,,,,1.33,0.68,1.15,1*02
17:08:41  $GNGSA,A,3,65,66,76,75,,,,,,,,,1.33,0.68,1.15,2*08
17:08:41  $GNGSA,A,3,02,03,08,,,,,,,,,,1.33,0.68,1.15,3*00
17:08:41  $GNGSA,A,3,19,22,36,,,,,,,,,,1.33,0.68,1.15,4*03
17:08:41  $GPGSV,3,1,12,02,26,260,43,03,32,316,42,10,20,143,44,16,07,177,24,1*62
17:08:41  $GPGSV,3,2,12,21,24,240,40,25,22,051,30,26,34,158,42,28,66,040,45,1*67
17:08:41  $GPGSV,3,3,12,31,77,236,46,32,39,075,47,44,42,210,43,46,35,225,38,1*62
17:08:41  $GPGSV,2,1,08,03,32,316,37,04,08,281,16,10,20,143,33,25,22,051,17,6*6A
17:08:41  $GPGSV,2,2,08,26,34,158,36,28,66,040,43,31,77,236,41,32,39,075,37,6*65
17:08:41  $GLGSV,2,1,05,65,62,024,46,66,29,318,42,72,,,32,75,62,069,48,1*4B
17:08:41  $GLGSV,2,2,05,76,39,178,50,1*4D
17:08:41  $GLGSV,1,1,04,65,62,024,39,66,29,318,39,75,62,069,46,76,39,178,41,3*75
17:08:41  $GAGSV,1,1,03,02,29,152,44,03,59,048,48,08,50,303,47,2*4B
17:08:41  $GAGSV,1,1,04,02,29,152,42,03,59,048,45,08,50,303,46,25,,,42,7*42
17:08:41  $GBGSV,2,1,05,11,04,308,28,19,29,112,30,21,,,39,22,76,046,47,1*4E
17:08:41  $GBGSV,2,2,05,36,62,078,47,1*4E
17:08:41  $GBGSV,1,1,01,11,04,308,31,3*48
17:08:41  $GNGLL,3741.56029,N,09720.28383,W,170841.00,A,A*69
17:08:42  $GNRMC,170842.00,A,3741.56022,N,09720.28375,W,0.005,,101124,,,A,V*09
17:08:42  $GNVTG,,T,,M,0.005,N,0.010,K,A*39
17:08:42  $GNGGA,170842.00,3741.56022,N,09720.28375,W,1,12,0.68,386.3,M,-26.4,M,,*73
17:08:42  $GNGSA,A,3,02,03,21,25,26,28,31,32,10,,,,1.33,0.68,1.15,1*02
17:08:42  $GNGSA,A,3,65,66,76,75,,,,,,,,,1.33,0.68,1.15,2*08
17:08:42  $GNGSA,A,3,02,03,08,,,,,,,,,,1.33,0.68,1.15,3*00
17:08:42  $GNGSA,A,3,19,22,36,,,,,,,,,,1.33,0.68,1.15,4*03
17:08:42  $GPGSV,3,1,12,02,26,260,43,03,32,316,42,10,20,143,44,16,07,177,23,1*65
17:08:42  $GPGSV,3,2,12,21,24,240,40,25,22,051,31,26,34,158,42,28,66,040,45,1*66
17:08:42  $GPGSV,3,3,12,31,77,236,47,32,39,075,47,44,42,210,43,46,35,225,38,1*63
17:08:42  $GPGSV,2,1,08,03,32,316,37,04,08,281,17,10,20,143,33,25,22,051,16,6*6A
17:08:42  $GPGSV,2,2,08,26,34,158,36,28,66,040,43,31,77,236,41,32,39,075,36,6*64
17:08:42  $GLGSV,2,1,05,65,62,024,46,66,29,318,42,72,,,31,75,62,069,48,1*48
17:08:42  $GLGSV,2,2,05,76,39,178,51,1*4C
17:08:42  $GLGSV,1,1,04,65,62,024,39,66,29,318,40,75,62,069,46,76,39,178,42,3*78
17:08:42  $GAGSV,1,1,03,02,29,152,44,03,59,048,48,08,50,303,47,2*4B
17:08:42  $GAGSV,1,1,04,02,29,152,42,03,59,048,45,08,50,303,46,25,,,42,7*42
17:08:42  $GBGSV,2,1,05,11,04,308,28,19,29,112,30,21,,,39,22,76,046,47,1*4E
17:08:42  $GBGSV,2,2,05,36,62,078,47,1*4E
17:08:42  $GBGSV,1,1,01,11,04,308,31,3*48
17:08:42  $GNGLL,3741.56022,N,09720.28375,W,170842.00,A,A*68
17:08:43  $GNRMC,170843.00,A,3741.56016,N,09720.28366,W,0.004,,101124,,,A,V*0C
17:08:43  $GNVTG,,T,,M,0.004,N,0.008,K,A*31
17:08:43  $GNGGA,170843.00,3741.56016,N,09720.28366,W,1,12,0.68,386.5,M,-26.4,M,,*71
17:08:43  $GNGSA,A,3,02,03,21,25,26,28,31,32,10,,,,1.33,0.68,1.15,1*02
17:08:43  $GNGSA,A,3,65,66,76,75,,,,,,,,,1.33,0.68,1.15,2*08
17:08:43  $GNGSA,A,3,02,03,08,,,,,,,,,,1.33,0.68,1.15,3*00
17:08:43  $GNGSA,A,3,19,22,36,,,,,,,,,,1.33,0.68,1.15,4*03
17:08:43  $GPGSV,3,1,12,02,26,260,43,03,32,316,42,10,20,143,44,16,07,177,23,1*65
17:08:43  $GPGSV,3,2,12,21,24,240,40,25,22,051,32,26,34,158,42,28,66,040,45,1*65
17:08:43  $GPGSV,3,3,12,31,77,236,47,32,39,075,46,44,42,210,43,46,35,225,38,1*62
17:08:43  $GPGSV,2,1,08,03,32,316,37,04,08,281,17,10,20,143,33,25,22,051,16,6*6A
17:08:43  $GPGSV,2,2,08,26,34,158,36,28,66,040,43,31,77,236,41,32,39,075,36,6*64
17:08:43  $GLGSV,2,1,05,65,62,024,46,66,29,318,42,72,,,32,75,62,069,48,1*4B
17:08:43  $GLGSV,2,2,05,76,39,178,51,1*4C
17:08:43  $GLGSV,1,1,04,65,62,024,39,66,29,318,39,75,62,069,46,76,39,178,42,3*76
17:08:43  $GAGSV,1,1,03,02,29,152,45,03,59,048,48,08,50,303,47,2*4A
17:08:43  $GAGSV,1,1,04,02,29,152,42,03,59,048,45,08,50,303,46,25,,,42,7*42
17:08:43  $GBGSV,2,1,05,11,04,308,28,19,29,112,29,21,,,39,22,76,046,47,1*46
17:08:43  $GBGSV,2,2,05,36,62,078,47,1*4E
17:08:43  $GBGSV,1,1,01,11,04,308,31,3*48
17:08:43  $GNGLL,3741.56016,N,09720.28366,W,170843.00,A,A*6C
17:08:44  $GNRMC,170844.00,A,3741.56010,N,09720.28358,W,0.003,,101124,,,A,V*07
17:08:44  $GNVTG,,T,,M,0.003,N,0.006,K,A*38
17:08:44  $GNGGA,170844.00,3741.56010,N,09720.28358,W,1,12,0.68,386.7,M,-26.4,M,,*7F
17:08:44  $GNGSA,A,3,02,03,21,25,26,28,31,32,10,,,,1.33,0.68,1.15,1*02
17:08:44  $GNGSA,A,3,65,66,76,75,,,,,,,,,1.33,0.68,1.15,2*08
17:08:44  $GNGSA,A,3,02,03,08,,,,,,,,,,1.33,0.68,1.15,3*00
17:08:44  $GNGSA,A,3,19,22,36,,,,,,,,,,1.33,0.68,1.15,4*03
17:08:44  $GPGSV,3,1,12,02,26,260,43,03,32,316,42,10,20,143,44,16,07,177,22,1*64
17:08:44  $GPGSV,3,2,12,21,24,240,40,25,22,051,33,26,34,158,42,28,66,040,45,1*64
17:08:44  $GPGSV,3,3,12,31,77,236,46,32,39,075,46,44,42,210,43,46,35,225,38,1*63
17:08:44  $GPGSV,2,1,08,03,32,316,37,04,08,281,16,10,20,143,34,25,22,051,16,6*6C
17:08:44  $GPGSV,2,2,08,26,34,158,36,28,66,040,43,31,77,236,41,32,39,075,35,6*67
17:08:44  $GLGSV,2,1,05,65,62,024,46,66,29,318,42,72,,,31,75,62,069,48,1*48
17:08:44  $GLGSV,2,2,05,76,39,178,51,1*4C
17:08:44  $GLGSV,1,1,04,65,62,024,39,66,29,318,39,75,62,069,46,76,39,178,43,3*77
17:08:44  $GAGSV,1,1,03,02,29,152,45,03,59,048,48,08,50,303,47,2*4A
17:08:44  $GAGSV,1,1,04,02,29,152,42,03,59,048,45,08,50,303,46,25,,,42,7*42
17:08:44  $GBGSV,2,1,05,11,04,308,28,19,29,112,29,21,,,39,22,76,046,47,1*46
17:08:44  $GBGSV,2,2,05,36,62,078,47,1*4E
17:08:44  $GBGSV,1,1,01,11,04,308,31,3*48
17:08:44  $GNGLL,3741.56010,N,09720.28358,W,170844.00,A,A*60
17:08:45  $GNRMC,170845.00,A,3741.56001,N,09720.28348,W,0.004,,101124,,,A,V*00
17:08:45  $GNVTG,,T,,M,0.004,N,0.007,K,A*3E
17:08:45  $GNGGA,170845.00,3741.56001,N,09720.28348,W,1,12,0.66,387.0,M,-26.4,M,,*77
17:08:45  $GNGSA,A,3,02,03,21,25,26,28,31,32,10,,,,1.32,0.66,1.14,1*0C
17:08:45  $GNGSA,A,3,65,66,76,75,,,,,,,,,1.32,0.66,1.14,2*06
17:08:45  $GNGSA,A,3,02,03,08,,,,,,,,,,1.32,0.66,1.14,3*0E
17:08:45  $GNGSA,A,3,19,22,36,21,,,,,,,,,1.32,0.66,1.14,4*0E
17:08:45  $GPGSV,3,1,12,02,26,260,43,03,32,316,42,10,20,143,44,16,07,177,22,1*64
17:08:45  $GPGSV,3,2,12,21,24,240,40,25,22,051,33,26,34,158,42,28,66,040,45,1*64
17:08:45  $GPGSV,3,3,12,31,77,236,46,32,39,075,45,44,42,210,43,46,35,225,38,1*60
17:08:45  $GPGSV,2,1,08,03,32,316,37,04,08,281,15,10,20,143,34,25,22,051,16,6*6F
17:08:45  $GPGSV,2,2,08,26,34,158,36,28,66,040,43,31,77,236,41,32,39,075,35,6*67
17:08:45  $GLGSV,2,1,05,65,62,024,46,66,29,318,42,72,,,33,75,62,069,48,1*4A
17:08:45  $GLGSV,2,2,05,76,39,178,50,1*4D
17:08:45  $GLGSV,1,1,04,65,62,024,39,66,29,318,39,75,62,069,46,76,39,178,43,3*77
17:08:45  $GAGSV,1,1,03,02,29,152,45,03,59,048,48,08,50,303,47,2*4A
17:08:45  $GAGSV,1,1,04,02,29,152,42,03,59,048,45,08,50,303,46,25,,,42,7*42
17:08:45  $GBGSV,2,1,05,11,04,308,28,19,29,112,29,21,,,39,22,76,046,47,1*46
17:08:45  $GBGSV,2,2,05,36,62,078,47,1*4E
17:08:45  $GBGSV,1,1,01,11,04,308,31,3*48
17:08:45  $GNGLL,3741.56001,N,09720.28348,W,170845.00,A,A*60
17:08:46  $GNRMC,170846.00,A,3741.55994,N,09720.28338,W,0.003,,101124,,,A,V*05
17:08:46  $GNVTG,,T,,M,0.003,N,0.005,K,A*3B
17:08:46  $GNGGA,170846.00,3741.55994,N,09720.28338,W,1,12,0.66,387.2,M,-26.4,M,,*77
17:08:46  $GNGSA,A,3,02,03,21,25,26,28,31,32,10,,,,1.32,0.66,1.14,1*0C
17:08:46  $GNGSA,A,3,65,66,76,75,,,,,,,,,1.32,0.66,1.14,2*06
17:08:46  $GNGSA,A,3,02,03,08,,,,,,,,,,1.32,0.66,1.14,3*0E
17:08:46  $GNGSA,A,3,19,22,36,21,,,,,,,,,1.32,0.66,1.14,4*0E
17:08:46  $GPGSV,3,1,12,02,26,260,43,03,32,316,42,10,20,143,44,16,07,177,22,1*64
17:08:46  $GPGSV,3,2,12,21,24,240,41,25,22,051,33,26,34,158,42,28,66,040,45,1*65
17:08:46  $GPGSV,3,3,12,31,77,236,47,32,39,075,44,44,42,210,43,46,35,225,38,1*60
17:08:46  $GPGSV,2,1,08,03,32,316,37,04,08,281,15,10,20,143,34,25,22,051,18,6*61
17:08:46  $GPGSV,2,2,08,26,34,158,37,28,66,040,43,31,77,236,41,32,39,075,35,6*66
17:08:46  $GLGSV,2,1,05,65,62,024,46,66,29,318,42,72,,,33,75,62,069,48,1*4A
17:08:46  $GLGSV,2,2,05,76,39,178,50,1*4D
17:08:46  $GLGSV,1,1,04,65,62,024,38,66,29,318,39,75,62,069,46,76,39,178,43,3*76
17:08:46  $GAGSV,1,1,03,02,29,152,45,03,59,048,48,08,50,303,47,2*4A
17:08:46  $GAGSV,1,1,04,02,29,152,42,03,59,048,45,08,50,303,46,25,,,42,7*42
17:08:46  $GBGSV,2,1,05,11,04,308,28,19,29,112,29,21,37,313,39,22,76,046,47,1*73
17:08:46  $GBGSV,2,2,05,36,62,078,47,1*4E
17:08:46  $GBGSV,1,1,01,11,04,308,31,3*48
17:08:46  $GNGLL,3741.55994,N,09720.28338,W,170846.00,A,A*62
17:08:47  $GNRMC,170847.00,A,3741.55987,N,09720.28329,W,0.002,,101124,,,A,V*07
17:08:47  $GNVTG,,T,,M,0.002,N,0.003,K,A*3C
17:08:47  $GNGGA,170847.00,3741.55987,N,09720.28329,W,1,12,0.66,387.4,M,-26.4,M,,*72
17:08:47  $GNGSA,A,3,02,03,21,25,26,28,31,32,10,,,,1.32,0.66,1.14,1*0C
17:08:47  $GNGSA,A,3,65,66,76,75,,,,,,,,,1.32,0.66,1.14,2*06
17:08:47  $GNGSA,A,3,02,03,08,,,,,,,,,,1.32,0.66,1.14,3*0E
17:08:47  $GNGSA,A,3,19,22,36,21,,,,,,,,,1.32,0.66,1.14,4*0E
17:08:47  $GPGSV,3,1,12,02,26,260,43,03,32,316,42,10,20,143,44,16,07,177,21,1*67
17:08:47  $GPGSV,3,2,12,21,24,240,41,25,22,051,34,26,34,158,42,28,66,040,45,1*62
17:08:47  $GPGSV,3,3,12,31,77,236,47,32,39,075,44,44,42,210,43,46,35,225,38,1*60
17:08:47  $GPGSV,2,1,08,03,32,316,37,04,08,281,14,10,20,143,34,25,22,051,17,6*6F
17:08:47  $GPGSV,2,2,08,26,34,158,37,28,66,040,43,31,77,236,41,32,39,075,36,6*65
17:08:47  $GLGSV,2,1,05,65,62,024,46,66,29,318,42,72,,,33,75,62,069,48,1*4A
17:08:47  $GLGSV,2,2,05,76,39,178,50,1*4D
17:08:47  $GLGSV,1,1,04,65,62,024,38,66,29,318,39,75,62,069,46,76,39,178,44,3*71
17:08:47  $GAGSV,1,1,03,02,29,152,44,03,59,048,48,08,50,303,47,2*4B
17:08:47  $GAGSV,1,1,04,02,29,152,42,03,59,048,45,08,50,303,46,25,,,41,7*41
17:08:47  $GBGSV,2,1,05,11,04,308,28,19,29,112,28,21,37,313,39,22,76,046,47,1*72
17:08:47  $GBGSV,2,2,05,36,62,078,47,1*4E
17:08:47  $GBGSV,1,1,01,11,04,308,31,3*48
17:08:47  $GNGLL,3741.55987,N,09720.28329,W,170847.00,A,A*61
17:08:48  $GNRMC,170848.00,A,3741.55981,N,09720.28320,W,0.001,,101124,,,A,V*04
17:08:48  $GNVTG,,T,,M,0.001,N,0.002,K,A*3E
17:08:48  $GNGGA,170848.00,3741.55981,N,09720.28320,W,1,12,0.66,387.6,M,-26.4,M,,*70
17:08:48  $GNGSA,A,3,02,03,21,25,26,28,31,32,10,,,,1.32,0.66,1.14,1*0C
17:08:48  $GNGSA,A,3,65,66,76,75,,,,,,,,,1.32,0.66,1.14,2*06
17:08:48  $GNGSA,A,3,02,03,08,,,,,,,,,,1.32,0.66,1.14,3*0E
17:08:48  $GNGSA,A,3,19,22,36,21,,,,,,,,,1.32,0.66,1.14,4*0E
17:08:48  $GPGSV,3,1,12,02,26,260,43,03,32,316,43,10,20,143,44,16,07,177,20,1*67
17:08:48  $GPGSV,3,2,12,21,24,240,41,25,22,051,34,26,34,158,42,28,66,040,46,1*61
17:08:48  $GPGSV,3,3,12,31,77,236,47,32,39,075,45,44,42,210,43,46,35,225,37,1*6E
17:08:48  $GPGSV,2,1,08,03,32,316,37,04,08,281,12,10,20,143,34,25,22,051,16,6*68
17:08:48  $GPGSV,2,2,08,26,34,158,37,28,66,040,43,31,77,236,41,32,39,075,36,6*65
17:08:48  $GLGSV,2,1,05,65,62,024,46,66,29,318,42,72,,,33,75,62,069,48,1*4A
17:08:48  $GLGSV,2,2,05,76,39,178,50,1*4D
17:08:48  $GLGSV,1,1,04,65,62,024,38,66,29,318,39,75,62,069,46,76,39,178,44,3*71
17:08:48  $GAGSV,1,1,03,02,29,152,44,03,59,048,48,08,50,303,47,2*4B
17:08:48  $GAGSV,1,1,04,02,29,152,42,03,59,048,45,08,50,303,46,25,,,42,7*42
17:08:48  $GBGSV,2,1,05,11,04,308,27,19,29,112,27,21,37,313,39,22,76,046,47,1*72
17:08:48  $GBGSV,2,2,05,36,62,078,47,1*4E
17:08:48  $GBGSV,1,1,01,11,04,308,31,3*48
17:08:48  $GNGLL,3741.55981,N,09720.28320,W,170848.00,A,A*61
17:08:49  $GNRMC,170849.00,A,3741.55976,N,09720.28312,W,0.001,,101124,,,A,V*0C
17:08:49  $GNVTG,,T,,M,0.001,N,0.001,K,A*3D
17:08:49  $GNGGA,170849.00,3741.55976,N,09720.28312,W,1,12,0.66,387.8,M,-26.4,M,,*76
17:08:49  $GNGSA,A,3,02,03,21,25,26,28,31,32,10,,,,1.32,0.66,1.14,1*0C
17:08:49  $GNGSA,A,3,65,66,76,75,,,,,,,,,1.32,0.66,1.14,2*06
17:08:49  $GNGSA,A,3,02,03,08,,,,,,,,,,1.32,0.66,1.14,3*0E
17:08:49  $GNGSA,A,3,19,22,36,21,,,,,,,,,1.32,0.66,1.14,4*0E
17:08:49  $GPGSV,3,1,11,02,26,260,43,03,32,316,42,10,20,143,44,21,24,240,41,1*60
17:08:49  $GPGSV,3,2,11,25,22,051,34,26,34,158,42,28,66,040,46,31,77,236,47,1*62
17:08:49  $GPGSV,3,3,11,32,39,075,45,44,42,210,43,46,35,225,38,1*54
17:08:49  $GPGSV,2,1,07,03,32,316,37,10,20,143,34,25,22,051,14,26,34,158,37,6*6A
17:08:49  $GPGSV,2,2,07,28,66,040,43,31,77,236,41,32,39,075,36,6*51
17:08:49  $GPGSV,1,1,02,04,08,281,,16,07,177,,0*61
17:08:49  $GLGSV,2,1,05,65,62,024,46,66,29,318,42,72,,,33,75,62,069,48,1*4A
17:08:49  $GLGSV,2,2,05,76,39,178,50,1*4D
17:08:49  $GLGSV,1,1,04,65,62,024,38,66,29,318,39,75,62,069,46,76,39,178,44,3*71
17:08:49  $GAGSV,1,1,03,02,29,152,44,03,59,048,48,08,50,303,47,2*4B
17:08:49  $GAGSV,1,1,04,02,29,152,42,03,59,048,45,08,50,303,46,25,,,42,7*42
17:08:49  $GBGSV,2,1,05,11,04,308,27,19,29,112,27,21,37,313,39,22,76,046,47,1*72
17:08:49  $GBGSV,2,2,05,36,62,078,47,1*4E
17:08:49  $GBGSV,1,1,01,11,04,308,31,3*48
17:08:49  $GNGLL,3741.55976,N,09720.28312,W,170849.00,A,A*69
17:08:50  $GNRMC,170850.00,A,3741.55971,N,09720.28306,W,0.001,,101124,,,A,V*06
17:08:50  $GNVTG,,T,,M,0.001,N,0.001,K,A*3D
17:08:50  $GNGGA,170850.00,3741.55971,N,09720.28306,W,1,12,0.66,387.9,M,-26.4,M,,*7D
17:08:50  $GNGSA,A,3,02,03,21,25,26,28,31,32,10,,,,1.32,0.66,1.14,1*0C
17:08:50  $GNGSA,A,3,65,66,76,75,,,,,,,,,1.32,0.66,1.14,2*06
17:08:50  $GNGSA,A,3,02,03,08,,,,,,,,,,1.32,0.66,1.14,3*0E
17:08:50  $GNGSA,A,3,19,22,36,21,,,,,,,,,1.32,0.66,1.14,4*0E
17:08:50  $GPGSV,3,1,11,02,26,260,43,03,32,316,43,10,20,143,44,21,24,240,41,1*61
17:08:50  $GPGSV,3,2,11,25,22,051,34,26,34,158,42,28,66,040,46,31,77,236,47,1*62
17:08:50  $GPGSV,3,3,11,32,39,075,46,44,42,210,43,46,35,225,38,1*57
17:08:50  $GPGSV,2,1,07,03,32,316,37,10,20,143,34,25,22,051,13,26,34,158,37,6*6D
17:08:50  $GPGSV,2,2,07,28,66,040,43,31,77,236,41,32,39,075,37,6*50
17:08:50  $GPGSV,1,1,02,04,08,281,,16,07,177,,0*61
17:08:50  $GLGSV,2,1,05,65,62,024,46,66,29,318,42,72,,,34,75,62,069,48,1*4D
17:08:50  $GLGSV,2,2,05,76,39,178,49,1*45
17:08:50  $GLGSV,1,1,04,65,62,024,39,66,29,318,39,75,62,069,46,76,39,178,44,3*70
17:08:50  $GAGSV,1,1,03,02,29,152,44,03,59,048,48,08,50,303,47,2*4B
17:08:50  $GAGSV,1,1,04,02,29,152,42,03,59,048,45,08,50,303,46,25,,,42,7*42
17:08:50  $GBGSV,1,1,04,19,29,112,27,21,37,313,39,22,76,046,47,36,62,078,47,1*77
17:08:50  $GBGSV,1,1,01,11,04,308,31,3*48
17:08:50  $GNGLL,3741.55971,N,09720.28306,W,170850.00,A,A*63
17:08:51  $GNRMC,170851.00,A,3741.55967,N,09720.28299,W,0.001,,101124,,,A,V*07
17:08:51  $GNVTG,,T,,M,0.001,N,0.001,K,A*3D
17:08:51  $GNGGA,170851.00,3741.55967,N,09720.28299,W,1,12,0.66,388.1,M,-26.4,M,,*7B
17:08:51  $GNGSA,A,3,02,03,21,25,26,28,31,32,10,,,,1.32,0.66,1.14,1*0C
17:08:51  $GNGSA,A,3,65,66,76,75,,,,,,,,,1.32,0.66,1.14,2*06
17:08:51  $GNGSA,A,3,02,03,08,,,,,,,,,,1.32,0.66,1.14,3*0E
17:08:51  $GNGSA,A,3,19,22,36,21,,,,,,,,,1.32,0.66,1.14,4*0E
17:08:51  $GPGSV,3,1,11,02,26,260,43,03,32,316,43,10,20,143,43,21,24,240,41,1*66
17:08:51  $GPGSV,3,2,11,25,22,051,34,26,34,158,42,28,66,040,46,31,77,236,47,1*62
17:08:51  $GPGSV,3,3,11,32,39,075,46,44,42,210,43,46,35,225,38,1*57
17:08:51  $GPGSV,2,1,07,03,32,316,37,10,20,143,34,25,22,051,13,26,34,158,37,6*6D
17:08:51  $GPGSV,2,2,07,28,66,040,43,31,77,236,41,32,39,075,38,6*5F
17:08:51  $GPGSV,1,1,02,04,08,281,,16,07,177,,0*61
17:08:51  $GLGSV,2,1,05,65,62,024,46,66,29,318,43,72,,,35,75,62,069,48,1*4D
17:08:51  $GLGSV,2,2,05,76,39,178,49,1*45
17:08:51  $GLGSV,1,1,04,65,62,024,39,66,29,318,39,75,62,069,46,76,39,178,44,3*70
17:08:51  $GAGSV,1,1,03,02,29,152,44,03,59,048,48,08,50,303,47,2*4B
17:08:51  $GAGSV,1,1,04,02,29,152,42,03,59,048,45,08,50,303,46,25,,,42,7*42
17:08:51  $GBGSV,1,1,04,19,29,112,27,21,37,313,39,22,76,048,47,36,62,078,47,1*79
17:08:51  $GBGSV,1,1,01,11,04,308,32,3*4B
17:08:51  $GNGLL,3741.55967,N,09720.28299,W,170851.00,A,A*62
17:08:52  $GNRMC,170852.00,A,3741.55963,N,09720.28293,W,0.001,,101124,,,A,V*0A
17:08:52  $GNVTG,,T,,M,0.001,N,0.002,K,A*3E
17:08:52  $GNGGA,170852.00,3741.55963,N,09720.28293,W,1,12,0.66,388.2,M,-26.4,M,,*75
17:08:52  $GNGSA,A,3,02,03,21,25,26,28,31,32,10,,,,1.32,0.66,1.14,1*0C
17:08:52  $GNGSA,A,3,65,66,76,75,,,,,,,,,1.32,0.66,1.14,2*06
17:08:52  $GNGSA,A,3,02,03,08,,,,,,,,,,1.32,0.66,1.14,3*0E
17:08:52  $GNGSA,A,3,19,22,36,21,,,,,,,,,1.32,0.66,1.14,4*0E
17:08:52  $GPGSV,3,1,11,02,26,260,43,03,32,316,43,10,20,143,43,21,24,240,42,1*65
17:08:52  $GPGSV,3,2,11,25,22,051,34,26,34,158,42,28,66,040,46,31,77,236,47,1*62
17:08:52  $GPGSV,3,3,11,32,39,075,47,44,42,210,43,46,35,225,38,1*56
17:08:52  $GPGSV,2,1,07,03,32,316,37,10,20,143,34,25,22,051,13,26,34,158,37,6*6D
17:08:52  $GPGSV,2,2,07,28,66,040,43,31,77,236,41,32,39,075,38,6*5F
17:08:52  $GPGSV,1,1,02,04,08,281,,16,07,177,,0*61
17:08:52  $GLGSV,2,1,05,65,62,024,46,66,29,318,43,72,,,36,75,62,069,48,1*4E
17:08:52  $GLGSV,2,2,05,76,39,178,49,1*45
17:08:52  $GLGSV,1,1,04,65,62,024,39,66,29,318,39,75,62,069,46,76,39,178,44,3*70
17:08:52  $GAGSV,1,1,03,02,29,152,44,03,59,048,48,08,50,303,47,2*4B
17:08:52  $GAGSV,1,1,04,02,29,152,42,03,59,048,45,08,50,303,46,25,,,42,7*42
17:08:52  $GBGSV,1,1,04,19,29,112,26,21,37,313,39,22,76,048,47,36,62,077,47,1*77
17:08:52  $GBGSV,1,1,01,11,04,308,31,3*48
17:08:52  $GNGLL,3741.55963,N,09720.28293,W,170852.00,A,A*6F
17:08:53  $GNRMC,170853.00,A,3741.55960,N,09720.28288,W,0.001,,101124,,,A,V*02
17:08:53  $GNVTG,,T,,M,0.001,N,0.002,K,A*3E
17:08:53  $GNGGA,170853.00,3741.55960,N,09720.28288,W,1,12,0.66,388.3,M,-26.4,M,,*7C
17:08:53  $GNGSA,A,3,02,03,21,25,26,28,31,32,10,,,,1.32,0.66,1.14,1*0C
17:08:53  $GNGSA,A,3,65,66,76,75,,,,,,,,,1.32,0.66,1.14,2*06
17:08:53  $GNGSA,A,3,02,03,08,,,,,,,,,,1.32,0.66,1.14,3*0E
17:08:53  $GNGSA,A,3,19,22,36,21,,,,,,,,,1.32,0.66,1.14,4*0E
17:08:53  $GPGSV,3,1,11,02,26,260,43,03,32,316,43,10,20,143,43,21,24,240,42,1*65
17:08:53  $GPGSV,3,2,11,25,22,051,34,26,34,158,42,28,66,040,46,31,77,236,47,1*62
17:08:53  $GPGSV,3,3,11,32,39,075,47,44,42,210,43,46,35,225,38,1*56
17:08:53  $GPGSV,2,1,07,03,32,316,37,10,20,143,34,25,22,051,12,26,34,158,37,6*6C
17:08:53  $GPGSV,2,2,07,28,66,040,43,31,77,236,41,32,39,075,38,6*5F
17:08:53  $GPGSV,1,1,02,04,08,281,,16,07,177,,0*61
17:08:53  $GLGSV,2,1,05,65,62,025,46,66,29,318,43,72,,,36,75,62,069,48,1*4F
17:08:53  $GLGSV,2,2,05,76,39,178,49,1*45
17:08:53  $GLGSV,1,1,04,65,62,025,39,66,29,318,39,75,62,069,46,76,39,178,44,3*71
17:08:53  $GAGSV,1,1,03,02,29,152,44,03,59,048,48,08,50,303,47,2*4B
17:08:53  $GAGSV,1,1,04,02,29,152,42,03,59,048,45,08,50,303,46,25,,,42,7*42
17:08:53  $GBGSV,1,1,04,19,29,112,27,21,37,313,39,22,76,048,48,36,62,077,47,1*79
17:08:53  $GBGSV,1,1,01,11,04,308,31,3*48
17:08:53  $GNGLL,3741.55960,N,09720.28288,W,170853.00,A,A*67
17:08:54  $GNRMC,170854.00,A,3741.55958,N,09720.28283,W,0.001,,101124,,,A,V*05
17:08:54  $GNVTG,,T,,M,0.001,N,0.002,K,A*3E
17:08:54  $GNGGA,170854.00,3741.55958,N,09720.28283,W,1,12,0.66,388.4,M,-26.4,M,,*7C
17:08:54  $GNGSA,A,3,02,03,21,25,26,28,31,32,10,,,,1.32,0.66,1.14,1*0C
17:08:54  $GNGSA,A,3,65,66,76,75,,,,,,,,,1.32,0.66,1.14,2*06
17:08:54  $GNGSA,A,3,02,03,08,,,,,,,,,,1.32,0.66,1.14,3*0E
17:08:54  $GNGSA,A,3,19,22,36,21,,,,,,,,,1.32,0.66,1.14,4*0E
17:08:54  $GPGSV,3,1,11,02,26,260,43,03,32,316,43,10,20,143,43,21,24,240,41,1*66
17:08:54  $GPGSV,3,2,11,25,22,051,35,26,34,158,42,28,66,040,46,31,77,236,47,1*63
17:08:54  $GPGSV,3,3,11,32,39,075,48,44,42,210,43,46,35,225,38,1*59
17:08:54  $GPGSV,2,1,07,03,32,316,37,10,20,143,34,25,22,051,11,26,34,158,37,6*6F
17:08:54  $GPGSV,2,2,07,28,66,040,43,31,77,236,41,32,39,075,39,6*5E
17:08:54  $GPGSV,1,1,02,04,08,281,,16,07,177,,0*61
17:08:54  $GLGSV,2,1,05,65,62,025,46,66,29,318,43,72,,,36,75,62,069,48,1*4F
17:08:54  $GLGSV,2,2,05,76,39,178,49,1*45
17:08:54  $GLGSV,1,1,04,65,62,025,38,66,29,318,39,75,62,069,46,76,39,178,44,3*70
17:08:54  $GAGSV,1,1,03,02,29,152,44,03,59,048,48,08,50,303,47,2*4B
17:08:54  $GAGSV,1,1,04,02,29,152,42,03,59,048,45,08,50,303,46,25,,,42,7*42
17:08:54  $GBGSV,1,1,04,19,29,112,27,21,37,313,39,22,76,048,48,36,62,077,47,1*79
17:08:54  $GBGSV,1,1,01,11,04,308,32,3*4B
17:08:54  $GNGLL,3741.55958,N,09720.28283,W,170854.00,A,A*60
17:08:55  $GNRMC,170855.00,A,3741.55955,N,09720.28278,W,0.002,,101124,,,A,V*0E
17:08:55  $GNVTG,,T,,M,0.002,N,0.003,K,A*3C
